codcnh,nombre,latitude,longitude,municipios,codprov,provincias,ncamas,finalidad_asisitencial,cerrado
10035,RED DE SALUD MENTAL DE ARABA (HOSPITAL PSIQUIÁTRICO DE ARABA),42.8361152,-2.678953,Vitoria-Gasteiz,1,ÁLAVA,207,PSIQUIÁTRICO,N
10040,HOSPITAL SAN JOSÉ,42.84968920000001,-2.6766447999999996,Vitoria-Gasteiz,1,ÁLAVA,63,MÉDICO-QUIRÚRGICO,N
10053,HOSPITAL QUIRÓNSALUD VITORIA,42.8497554,-2.6682745999999997,Vitoria-Gasteiz,1,ÁLAVA,26,GENERAL,N
10066,"HOSPITAL DE CUIDADOS SAN ONOFRE, S.L. (HOSPITAL DE CUIDADOS SAN ONOFRE)",42.8433062,-2.6829027,Vitoria-Gasteiz,1,ÁLAVA,82,GERIATRÍA Y/O LARGA ESTANCIA,N
10088,HOSPITAL DE LEZA,42.5582437601974,-2.5870005000000003,Laguardia,1,ÁLAVA,63,GENERAL,N
10090,HOSPITAL UNIVERSITARIO DE ARABA (SEDE TXAGORRITXU Y SEDE SANTIAGO),42.855074750156206,-2.68858650039815,Vitoria-Gasteiz,1,ÁLAVA,811,GENERAL,N
20019,COMPLEJO HOSPITALARIO UNIVERSITARIO DE ALBACETE,38.9947778,-1.8728752,Albacete,2,ALBACETE,705,GENERAL,N
20030,HOSPITAL GENERAL UNIVERSITARIO DE ALBACETE,38.9947778,-1.8728752,Albacete,2,ALBACETE,0,GENERAL,N
20061,CLÍNICA SANTA CRISTINA ALBACETE,38.989732700000005,-1.8577539,Albacete,2,ALBACETE,42,GENERAL,N
20096,HOSPITAL DE HELLÍN,40.366225435986564,-3.5419931021476927,Hellín,2,ALBACETE,135,GENERAL,N
20100,QUIRONSALUD HOSPITAL ALBACETE,38.9854336,-1.8440492,Albacete,2,ALBACETE,65,GENERAL,N
20117,HOSPITAL UNIVERSITARIO NUESTRA SEÑORA DEL PERPETUO SOCORRO,38.9904149500036,-1.8717705999831102,Albacete,2,ALBACETE,0,GENERAL,N
20136,HOSPITAL GENERAL DE ALMANSA,38.8653577122274,-1.0879057821420501,Almansa,2,ALBACETE,93,GENERAL,N
20147,HOSPITAL GENERAL DE VILLAROBLEDO,39.263124855865705,-2.59089275415665,Villarrobledo,2,ALBACETE,114,GENERAL,N
20158,"CENTRO DE ATENCIÓN A LA SALUD MENTAL ""LA MILAGROSA""",39.009791153093296,-1.8675389919353,Albacete,2,ALBACETE,0,PSIQUIÁTRICO,N
30015,HOSPITAL GENERAL UNIVERSITARIO DE ALICANTE,38.362671850018295,-0.487416550020361,Alicante/Alacant,3,ALICANTE,794,GENERAL,N
30036,CLÍNICA VISTAHERMOSA GRUPO HLA,38.374187749994796,-0.455990193633404,Alicante/Alacant,3,ALICANTE,106,GENERAL,N
30041,VITHAS HOSPITAL PERPETUO INTERNACIONAL,38.353394300770795,-0.476833047892997,Alicante/Alacant,3,ALICANTE,103,GENERAL,N
30067,HOSPITAL VIRGEN DE LOS LIRIOS,38.71583938598633,-0.4723039865493774,Alcoy/Alcoi,3,ALICANTE,305,GENERAL,N
30089,SANATORIO SAN JORGE S.L.,38.6929589,-0.48606009999999994,Alcoy/Alcoi,3,ALICANTE,26,GENERAL,N
30092,HOSPITAL CLÍNICA BENIDORM,38.5439673330566,-0.13018126035401198,Benidorm,3,ALICANTE,166,GENERAL,N
30128,HOSPITAL SAN CARLOS DE DENIA GRUPO HLA,38.8364090875386,0.08569351092097126,Dénia,3,ALICANTE,31,GENERAL,N
30152,HOSPITAL GENERAL UNIVERSITARIO DE ELCHE,38.2596554,-0.6851588000000001,Elche/Elx,3,ALICANTE,492,GENERAL,N
30165,HOSPITAL GENERAL UNIVERSITARIO DE ELDA-VIRGEN DE LA SALUD,38.48579177114,-0.8005462311465241,Elda,3,ALICANTE,513,GENERAL,N
30187,HOSPITAL SANT VICENT DEL RASPEIG,38.40495721456168,-0.5300609158888444,San Vicente del Raspeig/Sant Vicent del Raspeig,3,ALICANTE,179,GERIATRÍA Y/O LARGA ESTANCIA,N
30190,SANATORIO SAN FRANCISCO DE BORJA FONTILLES,38.77568435668945,-0.129612997174263,"Vall de Laguar, la",3,ALICANTE,96,GERIATRÍA Y/O LARGA ESTANCIA,N
30204,HOSPITAL MARINA BAIXA DE LA VILA JOIOSA,38.524026977413705,-0.19779025228500602,"Villajoyosa/Vila Joiosa, la",3,ALICANTE,286,GENERAL,N
30211,HOSPITAL VEGA BAJA DE ORIHUELA,38.089504929774705,-0.8601685846273119,Orihuela,3,ALICANTE,361,GENERAL,N
30226,"HOSPITAL INTERNACIONAL MEDIMAR, S.A.",38.352068200000005,-0.4733522,Alicante/Alacant,3,ALICANTE,66,GENERAL,N
30232,HOSPITAL PSIQUIÁTRICO PENITENCIARIO DE FONTCALENT,38.348466512238396,-0.5587185372461629,Alicante/Alacant,3,ALICANTE,432,PSIQUIÁTRICO,N
30250,HOSPITAL UNIVERSITARIO SAN JUAN DE ALICANTE,38.3976164,-0.42968950000000006,Sant Joan d'Alacant,3,ALICANTE,396,GENERAL,N
30279,CENTRO MÉDICO ACUARIO,38.82334580783038,-0.001085546996532279,Beniarbeig,3,ALICANTE,19,GENERAL,N
30298,HOSPÌTAL QUIRONSALUD TORREVIEJA,37.98698425292969,-0.6955779790878296,Torrevieja,3,ALICANTE,132,GENERAL,N
30328,HOSPITAL IMED LEVANTE,38.5411167,-0.10598869999999999,Alicante/Alacant,3,ALICANTE,100,GENERAL,N
30339,HOSPITAL UNIVERSITARIO DE TORREVIEJA,37.97758483886719,-0.6831889748573303,Torrevieja,3,ALICANTE,269,GENERAL,N
30340,HOSPITAL DE DENIA,38.84056091308594,0.10842499881982803,Dénia,3,ALICANTE,266,GENERAL,N
30351,HOSPITAL LA PEDRERA,38.8260347000073,0.0916320501575121,Dénia,3,ALICANTE,107,GERIATRÍA Y/O LARGA ESTANCIA,N
30362,CENTRO DE REHABILITACIÓN NEUROLÓGICA CASAVERDE,38.420596100000004,-0.46993609999999997,Mutxamel,3,ALICANTE,40,REHABILITACIÓN PSICOFÍSICA,N
30373,HOSPITAL UNIVERSITARIO VINALOPO,38.25459779999999,-0.7152393,Elche/Elx,3,ALICANTE,214,GENERAL,N
30384,HOSPITAL IMED ELCHE,38.2873645067241,-0.6188594417260911,Elche/Elx,3,ALICANTE,98,GENERAL,N
40010,HOSPITAL TORRECÁRDENAS,36.859657287597656,-2.4411749839782715,Almería,4,ALMERÍA,0,GENERAL,S
40031,HOSPITAL DE LA CRUZ ROJA,36.843621664705594,-2.452468544522166,Almería,4,ALMERÍA,0,GENERAL,N
40059,HOSPITAL VIRGEN DEL MAR,36.8462654,-2.4415948,Almería,4,ALMERÍA,76,GENERAL,N
40084,HOSPITAL LA INMACULADA,37.4032685000031,-1.9428963500388798,Huércal-Overa,4,ALMERÍA,184,GENERAL,N
40097,HOSPITAL UNIVERSITARIO TORRECÁRDENAS,36.859657287597656,-2.4411749839782715,Almería,4,ALMERÍA,763,GENERAL,N
40101,HOSPITAL MEDITERRÁNEO,36.820123547908295,-2.43551482525027,Almería,4,ALMERÍA,89,GENERAL,N
40118,HOSPITAL DE PONIENTE,51.09328079223633,10.380292892456056,"Ejido, El",4,ALMERÍA,273,GENERAL,N
40127,HOSPITAL DE ALTA RESOLUCIÓN EL TOYO,36.85175209308979,-2.31173957893259,Almería,4,ALMERÍA,44,GENERAL,N
50013,HOSPITAL NUESTRA SEÑORA DE SONSOLES,40.66228532872879,-4.67225397988029,Ávila,5,ÁVILA,0,GENERAL,N
50034,HOSPITAL PROVINCIAL DE ÁVILA,40.65061565482487,-4.6909804433387645,Ávila,5,ÁVILA,0,GENERAL,N
50049,CLÍNICA SANTA TERESA,40.658675278996746,-4.6878834895624495,Ávila,5,ÁVILA,33,GENERAL,N
50061,COMPLEJO ASISTENCIAL DE AVILA,40.66228532872879,-4.67225397988029,Ávila,5,ÁVILA,430,GENERAL,N
50072,HOSPITAL DE SALUD MENTAL CASTA SALUD ARÉVALO,41.0551122574973,-4.720634523429549,Arévalo,5,ÁVILA,80,PSIQUIÁTRICO,N
60016,COMPLEJO HOSPITALARIO UNIVERSITARIO DE BADAJOZ,38.8854542519145,-7.008853250754041,Badajoz,6,BADAJOZ,915,GENERAL,N
60021,HOSPITAL UNIVERSITARIO DE BADAJOZ,38.8854542519145,-7.008853250754041,Badajoz,6,BADAJOZ,0,GENERAL,N
60037,HOSPITAL MATERNO INFANTIL,38.865745600158895,-6.96999485003992,Badajoz,6,BADAJOZ,0,MATERNO-INFANTIL,N
60080,"HOSPITAL ""FUNDACIÓN SAN JUAN DE DIOS DE EXTREMADURA""",38.6805037,-6.405271599999999,Almendralejo,6,BADAJOZ,105,GERIATRÍA Y/O LARGA ESTANCIA,N
60093,HOSPITAL DON BENITO-VILLANUEVA DE LA SERENA,38.9545351,-5.8611368,Don Benito,6,BADAJOZ,0,GENERAL,N
60114,HOSPITAL GENERAL DE LLERENA,38.243159332867656,-6.0124816366412,Llerena,6,BADAJOZ,0,GENERAL,N
60129,HOSPITAL DE MÉRIDA,38.912001399999994,-6.3634244,Mérida,6,BADAJOZ,0,GENERAL,N
60135,CENTRO SOCIOSANITARIO DE MÉRIDA,38.9227588,-6.3270932,Mérida,6,BADAJOZ,270,PSIQUIÁTRICO,N
60140,HOSPITAL QUIRÓNSALUD SANTA JUSTA,38.973260344317005,-5.79553870253161,Villanueva de la Serena,6,BADAJOZ,29,QUIRÚRGICO,N
60172,HOSPITAL QUIRONSALUD CLIDEBA,38.8688594000089,-6.98906894995852,Badajoz,6,BADAJOZ,73,GENERAL,N
60188,HOSPITAL PARQUE VIA DE LA PLATA,38.4244606000122,-6.411446900039481,Zafra,6,BADAJOZ,9,GENERAL,N
60208,HOSPITAL DE ZAFRA,38.4305732708509,-6.4167468482261105,Zafra,6,BADAJOZ,0,GENERAL,N
60219,COMPLEJO HOSPITALARIO LLERENA-ZAFRA,38.243159332867656,-6.0124816366412,Llerena,6,BADAJOZ,227,GENERAL,N
60220,HOSPITAL PERPETUO SOCORRO,38.8671154053821,-6.97310266213956,Badajoz,6,BADAJOZ,0,GENERAL,N
60231,HOSPITAL SIBERIA-SERENA,39.03323745727539,-5.2362589836120605,Talarrubias,6,BADAJOZ,0,GENERAL,N
60242,HOSPITAL TIERRA DE BARROS,38.6882710992103,-6.4043282552608005,Almendralejo,6,BADAJOZ,0,GENERAL,N
60253,COMPLEJO H. DON BENITO-VVA DE LA SERENA,38.9617206,-5.864335400000001,Don Benito,6,BADAJOZ,320,GENERAL,N
60264,COMPLEJO HOSPITALARIO DEL ÁREA DE SALUD DE MÉRIDA,38.912001399999994,-6.3634244,Mérida,6,BADAJOZ,381,GENERAL,N
60275,CASAVERDE. CENTRO DE REHABILITACIÓN NEUROLÓGICO DE EXTREMADURA,38.9099713971776,-6.37209521049142,Mérida,6,BADAJOZ,100,REHABILITACIÓN PSICOFÍSICA,N
60286,CLÍNICA EXTREMEÑA DE SALUD,38.8838119506836,-6.98399019241333,Badajoz,6,BADAJOZ,20,GENERAL,N
60297,HOSPITAL PARQUE VEGAS ALTAS,38.9620419167517,-5.85748531188388,Don Benito,6,BADAJOZ,21,GENERAL,N
70048,HOSPITAL GENERAL DE MALLORCA,39.574221200000004,2.6467883999999997,Palma de Mallorca,7,ILLES BALEARS,100,GERIATRÍA Y/O LARGA ESTANCIA,N
70051,HOSPITAL PSIQUIÀTRIC,39.595566600000005,2.6298166000000003,Palma de Mallorca,7,ILLES BALEARS,168,PSIQUIÁTRICO,N
70064,CLÍNICA MUTUA BALEAR,39.575232799999995,2.6464719,Palma de Mallorca,7,ILLES BALEARS,40,TRAUMATOLOGÍA Y/O REHABILITACIÓN,N
70070,HOSPITAL DE LA CRUZ ROJA ESPAÑOLA,39.583886299999996,2.6531568,Palma de Mallorca,7,ILLES BALEARS,73,MÉDICO-QUIRÚRGICO,N
70086,HOSPITAL SANT JOAN DE DEU,39.54711629999999,2.6985938999999997,Palma de Mallorca,7,ILLES BALEARS,200,MÉDICO-QUIRÚRGICO,N
70099,CLÍNICA ROTGER,39.5757354,2.6469365000000002,Palma de Mallorca,7,ILLES BALEARS,186,GENERAL,N
70110,CLINICA JUANEDA,39.5763991,2.6277846,Palma de Mallorca,7,ILLES BALEARS,196,GENERAL,N
70131,POLICLÍNICA MIRAMAR,39.5835955,2.6305023999999997,Palma de Mallorca,7,ILLES BALEARS,206,GENERAL,N
70162,HOSPITAL JOAN MARCH,39.6255717,2.6618883999999996,Bunyola,7,ILLES BALEARS,106,GERIATRÍA Y/O LARGA ESTANCIA,N
70184,HOSPITAL CAN MISSES,38.9158952284854,1.41788891413591,Eivissa,7,ILLES BALEARS,245,GENERAL,N
70197,HOSPITAL RESIDENCIA ASISTIDA CAS SERRES,38.9088249206543,1.432070016860962,Eivissa,7,ILLES BALEARS,5,OTRA FINALIDAD,N
70201,"POLICLÍNICA NUESTRA SEÑORA DEL ROSARIO, S.A.",38.9075165832007,1.43151465227718,Eivissa,7,ILLES BALEARS,70,GENERAL,N
70244,CLÍNICA JUANEDA MENORCA,40.0043744000015,3.8419065000277994,Ciutadella de Menorca,7,ILLES BALEARS,41,GENERAL,N
70260,HOSPITAL GENERAL DE MURO,39.81338529999999,3.1079103999999997,Muro,7,ILLES BALEARS,85,GENERAL,N
70295,CLINICA JUANEDA MAHON,39.8865698,4.256011,Maó-Mahón,7,ILLES BALEARS,18,GENERAL,N
70309,HOSPITAL MANACOR,39.57442855834961,3.201385974884033,Manacor,7,ILLES BALEARS,224,GENERAL,N
70333,HOSPITAL SON LLATZER,39.566744,3.2052224999999996,Palma de Mallorca,7,ILLES BALEARS,419,GENERAL,N
70344,HOSPITAL QUIRÓNSALUD PALMAPLANAS,39.597786,2.6424578,Palma de Mallorca,7,ILLES BALEARS,169,GENERAL,N
70366,HOSPITAL DE FORMENTERA,38.70719909667969,1.430966019630432,Formentera,7,ILLES BALEARS,12,GENERAL,N
70377,HOSPITAL COMARCAL D'INCA,39.7169157105222,2.9216121936982202,Inca,7,ILLES BALEARS,165,GENERAL,N
70388,HOSPITAL MATEU ORFILA,39.88011932373047,4.256029129028319,Maó-Mahón,7,ILLES BALEARS,142,GENERAL,N
70399,HOSPITAL UNIVERSITARI SON ESPASES,39.6075286658744,2.64780485596609,Palma de Mallorca,7,ILLES BALEARS,839,GENERAL,N
70412,HOSPITAL DE LLEVANT,39.5451977,3.3294865,Manacor,7,ILLES BALEARS,70,GENERAL,N
70423,HOSPITAL CLINIC BALEAR,39.4914758900211,2.7403238608183598,Llucmajor,7,ILLES BALEARS,34,GENERAL,N
70434,CLÍNICA LUZ DE PALMA,39.567184999999995,2.6243016,Palma de Mallorca,7,ILLES BALEARS,38,GENERAL,N
80044,"HOSPITAL CLÍNIC DE BARCELONA, SEU SABINO DE ARANA",41.3854491,2.1266675,Barcelona,8,BARCELONA,130,MATERNO-INFANTIL,N
80057,HOSPITAL DEL MAR.,41.383323922896416,2.194750497677086,Barcelona,8,BARCELONA,470,GENERAL,N
80060,HOSPITAL DE L'ESPERANÇA.,41.4109657,2.1543638,Barcelona,8,BARCELONA,161,GENERAL,N
80109,HOSPITAL CLÍNIC DE BARCELONA,41.3891161,2.1517654999999998,Barcelona,8,BARCELONA,844,GENERAL,N
80116,HOSPITAL FREMAP BARCELONA,41.4014259,2.150446,Barcelona,8,BARCELONA,62,GENERAL,N
80137,CENTRE DE PREVENCIÓ I REHABILITACIÓ ASEPEYO,41.4903344074835,2.07765632314624,Sant Cugat del Vallès,8,BARCELONA,138,GENERAL,N
80142,CLÍNICA MC COPÈRNIC,41.4011105,2.1411990000000003,Barcelona,8,BARCELONA,60,GENERAL,N
80155,CLÍNICA MC LONDRES,41.389227000000005,2.1453463,Barcelona,8,BARCELONA,22,GENERAL,N
80168,HOSPITAL EGARSAT SANT HONORAT,41.4121333,2.1358069,Barcelona,8,BARCELONA,14,GENERAL,N
80174,HOSPITAL DOS DE MAIG,41.410691,2.1770391,Barcelona,8,BARCELONA,229,GENERAL,N
80180,HOSPITAL EL PILAR,41.40022866356618,2.1488537540710126,Barcelona,8,BARCELONA,186,GENERAL,N
80214,HOSPITAL SANT RAFAEL,41.425683299999996,2.1423646,Barcelona,8,BARCELONA,213,GENERAL,N
80229,CLÍNICA NOSTRA SENYORA DEL REMEI,41.4096598,2.1591997000000003,Barcelona,8,BARCELONA,134,GENERAL,N
80235,CLÍNICA SAGRADA FAMÍLIA,41.4006024,2.1343369,Barcelona,8,BARCELONA,150,GENERAL,N
80253,HOSPITAL MARE DE DÉU DE LA MERCÈ,41.4375364,2.1618821,Barcelona,8,BARCELONA,113,PSIQUIÁTRICO,N
80266,CLÍNICA  SOLARIUM,41.417266600000005,2.1380577,Barcelona,8,BARCELONA,44,GERIATRÍA Y/O LARGA ESTANCIA,N
80291,HOSPITAL DE LA SANTA CREU I SANT PAU,41.41569148811824,2.1750652467439378,Barcelona,8,BARCELONA,644,GENERAL,N
80312,NOU HOSPITAL EVANGÈLIC,41.41298929981691,2.162394929407808,Barcelona,8,BARCELONA,116,GERIATRÍA Y/O LARGA ESTANCIA,N
80327,HOSPITAL DE NENS DE BARCELONA,41.3973523,2.1738664,Barcelona,8,BARCELONA,18,INFANTIL,N
80333,INSTITUT GUTTMANN,41.4689221345481,2.2422471125311203,Badalona,8,BARCELONA,152,TRAUMATOLOGÍA Y/O REHABILITACIÓN,N
80348,FUNDACIÓ PUIGVERT - IUNA,41.4084540501846,2.17792180053572,Barcelona,8,BARCELONA,124,OTROS MONOGRÁFICOS,N
80351,HESTIA PALAU.,41.4100261,2.1726071,Barcelona,8,BARCELONA,317,GERIATRÍA Y/O LARGA ESTANCIA,N
80364,HOSPITAL UNIVERSITARI SAGRAT COR,41.38846130102552,2.145755850309228,Barcelona,8,BARCELONA,367,GENERAL,N
80370,CLÍNICA CORACHAN,41.3934842,2.1307271,Barcelona,8,BARCELONA,162,GENERAL,N
80386,CLÍNICA TRES TORRES,41.399217799999995,2.1288351000000003,Barcelona,8,BARCELONA,64,GENERAL,N
80399,HOSPITAL QUIRÓNSALUD BARCELONA,41.41478265441787,2.1383890944904818,Barcelona,8,BARCELONA,192,GENERAL,N
80403,CENTRE  MÈDIC  DELFOS,41.414109,2.1429195,Barcelona,8,BARCELONA,264,GENERAL,N
80410,CENTRE MÈDIC SANT JORDI DE SANT ANDREU,41.4361953,2.1927993999999997,Barcelona,8,BARCELONA,57,GENERAL,N
80431,HOSPITAL PLATÓ,41.400890600000004,2.1425552000000003,Barcelona,8,BARCELONA,168,GENERAL,N
80446,HOSPITAL UNIVERSITARI QUIRÓN DEXEUS,41.3852599,2.1261017000000004,Barcelona,8,BARCELONA,170,GENERAL,N
80478,"CENTRO MÉDICO TEKNON,  GRUPO QUIRONSALUD",41.405451,2.1283687000000002,Barcelona,8,BARCELONA,285,GENERAL,N
80484,HOSPITAL  DE  BARCELONA,41.3895219,2.1298522,Barcelona,8,BARCELONA,350,GENERAL,N
80497,CENTRE HOSPITALARI POLICLÍNICA BARCELONA,41.4032665,2.1496053,Barcelona,8,BARCELONA,28,GENERAL,N
80538,CENTRE D'OFTALMOLOGIA BARRAQUER,41.3969836,2.1458917,Barcelona,8,BARCELONA,70,OFTÁLMICO U ORL,N
80543,HESTIA DURAN I REYNALS,41.344991230902885,2.109556419391533,"Hospitalet de Llobregat, L'",8,BARCELONA,428,GERIATRÍA Y/O LARGA ESTANCIA,N
80556,"SERVEIS CLÍNICS, S.A.",41.4124759,2.1360808,Barcelona,8,BARCELONA,50,GERIATRÍA Y/O LARGA ESTANCIA,N
80575,CLÍNICA COROLEU - SSR HESTIA.,41.432964299999995,2.1870035,Barcelona,8,BARCELONA,74,PSIQUIÁTRICO,N
80641,CLÍNICA PLANAS,41.3993049,2.1156136,Barcelona,8,BARCELONA,26,QUIRÚRGICO,N
80667,HOSPITAL UNIVERSITARI GERMANS TRIAS I PUJOL DE BADALONA,41.478004455566406,2.2157599925994877,Badalona,8,BARCELONA,516,GENERAL,N
80673,HOSPITAL MUNICIPAL DE BADALONA,41.4506513,2.2458572999999995,Badalona,8,BARCELONA,140,GENERAL,N
80689,CENTRE SOCIOSANITARI EL CARME,41.458966,2.2308008,Badalona,8,BARCELONA,210,GERIATRÍA Y/O LARGA ESTANCIA,N
80692,HOSPITAL COMARCAL DE SANT BERNABÉ,42.104528400003,1.85028209999428,Berga,8,BARCELONA,150,GENERAL,N
80706,HOSPITAL COMARCAL SANT JAUME DE CALELLA,41.61476048057119,2.657359817453565,Calella,8,BARCELONA,233,GENERAL,N
80713,HOSPITAL DE SANT JOAN DE DÉU.,41.3688948,2.0742136,Esplugues de Llobregat,8,BARCELONA,401,MATERNO-INFANTIL,N
80728,CLÍNICA NOSTRA SENYORA DE GUADALUPE,41.3589701,2.0959795,Esplugues de Llobregat,8,BARCELONA,159,GERIATRÍA Y/O LARGA ESTANCIA,N
80734,HOSPITAL GENERAL DE GRANOLLERS.,41.6137528,2.290727,Granollers,8,BARCELONA,306,GENERAL,N
80752,HOSPITAL UNIVERSITARI DE BELLVITGE,41.3501681013529,2.09794820567831,"Hospitalet de Llobregat, L'",8,BARCELONA,1022,GENERAL,N
80771,HOSPITAL GENERAL DE L'HOSPITALET,41.3740708,2.1064648999999998,"Hospitalet de Llobregat, L'",8,BARCELONA,89,GENERAL,N
80787,FUNDACIÓ SANITÀRIA SANT JOSEP,41.5826218,1.6191076000000002,Igualada,8,BARCELONA,145,GERIATRÍA Y/O LARGA ESTANCIA,N
80826,HOSPITAL  DE  SANT  JAUME,42.00139344670657,2.2872671069468447,Manlleu,8,BARCELONA,90,GERIATRÍA Y/O LARGA ESTANCIA,N
80832,CLÍNICA SANT JOSEP,41.72286210000001,1.8320710999999998,Manresa,8,BARCELONA,95,GENERAL,N
80850,CENTRE HOSPITALARI.,41.735092130518005,1.824630534108428,Manresa,8,BARCELONA,309,GENERAL,N
80863,HOSPITAL DE SANT JOAN DE DÉU (MANRESA),41.720177837132,1.83915144701485,Manresa,8,BARCELONA,280,GENERAL,N
80879,HOSPITAL DE SANT ANDREU,41.725319808286635,1.8292922201307693,Manresa,8,BARCELONA,191,GERIATRÍA Y/O LARGA ESTANCIA,N
80885,GERMANES HOSPITALÀRIES. HOSPITAL SAGRAT COR,41.489190366339,1.91186803067326,Martorell,8,BARCELONA,488,PSIQUIÁTRICO,N
80898,FUNDACIÓ HOSPITAL SANT JOAN DE DÉU,41.472097926073396,1.920608547495271,Martorell,8,BARCELONA,112,GENERAL,N
80930,"CENTRE MÈDIC MOLINS, SL",41.4180174,2.0108677,Molins de Rei,8,BARCELONA,177,GERIATRÍA Y/O LARGA ESTANCIA,N
80945,HOSPITAL DE MOLLET,41.54118728637695,2.213916063308716,Mollet del Vallès,8,BARCELONA,164,GENERAL,N
80958,HOSPITAL DE SABADELL,41.573089599609375,2.109924077987671,Sabadell,8,BARCELONA,861,GENERAL,N
80977,"BENITO MENNI,COMPLEX ASSISTENCIAL EN SALUT MENTAL.",41.34988870000001,2.0382356,Sant Boi de Llobregat,8,BARCELONA,774,PSIQUIÁTRICO,N
80983,PARC SANITARI SANT JOAN DE DÉU - RECINTE SANT BOI.,41.357640300000206,2.03440365000258,Sant Boi de Llobregat,8,BARCELONA,1065,GENERAL,N
80996,PARC SANITARI SANT JOAN DE DÉU - HOSPITAL GENERAL,41.35693739076708,2.0309278849221526,Sant Boi de Llobregat,8,BARCELONA,246,GENERAL,S
81000,HOSPITAL DE SANT CELONI.,41.68476140310975,2.4772322457532416,Sant Celoni,8,BARCELONA,100,GENERAL,N
81017,HOSPITAL UNIVERSITARI GENERAL DE CATALUNYA,41.475790350012005,2.0430533000313402,Sant Cugat del Vallès,8,BARCELONA,286,GENERAL,N
81022,CASAL DE CURACIÓ,41.50171982646349,2.3874448250338536,Vilassar de Mar,8,BARCELONA,81,GERIATRÍA Y/O LARGA ESTANCIA,N
81038,HOSPITAL RESIDÈNCIA SANT CAMIL - CONSORCI SANITARI DEL GARRAF.,41.253428350005,1.76875455000143,Sant Pere de Ribes,8,BARCELONA,295,GENERAL,N
81056,CENTRES ASSISTENCIALS DR. EMILI MIRA I LÓPEZ (RECINTE TORRIBERA).,41.459510241411365,2.2133116427152806,Santa Coloma de Gramenet,8,BARCELONA,454,PSIQUIÁTRICO,N
81069,FUNDACIÓ HOSPITAL DE L'ESPERIT SANT,41.4392312975921,2.2108676045242004,Santa Coloma de Gramenet,8,BARCELONA,177,GENERAL,N
81075,HOSPITAL DE TERRASSA.,41.55572128295898,2.0554590225219727,Terrassa,8,BARCELONA,460,GENERAL,N
81081,HOSPITAL DE SANT LLÀTZER,41.5633503500018,2.0164044000362598,Terrassa,8,BARCELONA,77,GERIATRÍA Y/O LARGA ESTANCIA,N
81094,HOSPITAL UNIVERSITARI MÚTUA DE TERRASSA,41.5633503500018,2.0164044000362598,Terrassa,8,BARCELONA,534,GENERAL,N
81108,HOSPITAL  UNIVERSITARI DE VIC,41.9360396932297,2.25942041549409,Vic,8,BARCELONA,292,GENERAL,N
81115,CLÍNICA SANT JOSEP,41.92992809015871,2.2611887971387787,Vic,8,BARCELONA,21,GENERAL,N
81120,HOSPITAL DE LA SANTA CREU,41.930037450000704,2.2529198499941,Vic,8,BARCELONA,127,GERIATRÍA Y/O LARGA ESTANCIA,N
81141,HOSPITAL DE VILADECANS,41.31144238805111,2.013791346532729,Viladecans,8,BARCELONA,110,GENERAL,N
81189,HOSPITAL SANT ANTONI ABAT - CONSORCI SANITARI DEL GARRAF.,41.228703,1.7228348999999998,Vilanova i la Geltrú,8,BARCELONA,111,GERIATRÍA Y/O LARGA ESTANCIA,N
81192,CENTRE SOCIOSANITARI CAN TORRAS,41.482046399999994,2.3051329,Alella,8,BARCELONA,119,GERIATRÍA Y/O LARGA ESTANCIA,N
81213,HESTIA MARESME,41.535885799999996,2.4442681,Mataró,8,BARCELONA,125,GERIATRÍA Y/O LARGA ESTANCIA,N
81228,PRYTANIS SANT BOI CENTRE SOCIOSANITARI,41.3493902,2.0391890999999998,Sant Boi de Llobregat,8,BARCELONA,122,GERIATRÍA Y/O LARGA ESTANCIA,N
81234,CENTRE SOCIOSANITARI VERGE DEL PUIG,41.6910815,2.485831,Sant Celoni,8,BARCELONA,40,GERIATRÍA Y/O LARGA ESTANCIA,N
81287,RESIDÈNCIA L'ESTADA,41.5657189,2.4897218,Sant Andreu de Llavaneres,8,BARCELONA,60,GERIATRÍA Y/O LARGA ESTANCIA,N
81304,RESIDÈNCIA PUIG-REIG,41.9779343,1.8794258999999998,Puig-reig,8,BARCELONA,30,GERIATRÍA Y/O LARGA ESTANCIA,N
81311,RESIDÈNCIA SANTA SUSANNA,41.6308213,2.1640341,Caldes de Montbui,8,BARCELONA,64,GERIATRÍA Y/O LARGA ESTANCIA,N
81326,HOSPITAL DE MATARÓ,41.5551946,2.4294843,Mataró,8,BARCELONA,402,GENERAL,N
81347,HOSPITAL UNIVERSITARI VALL D'HEBRON,41.4280047,2.1434324,Barcelona,8,BARCELONA,1315,GENERAL,N
81350,CENTRE POLIVALENT CAN FOSC,41.6599531497575,2.2690159715580096,"Ametlla del Vallès, L'",8,BARCELONA,56,GERIATRÍA Y/O LARGA ESTANCIA,N
81379,HOSPITAL SOCIOSANITARI MUTUAM GÜELL,41.4114053,2.1567041000000002,Barcelona,8,BARCELONA,167,GERIATRÍA Y/O LARGA ESTANCIA,N
81402,"MÚTUA DE GRANOLLERS, MÚTUA DE PREVISIÓ SOCIAL A PRIMA FIXA",41.6068181000117,2.2894566000000003,Granollers,8,BARCELONA,20,GENERAL,N
81430,HOSPITAL COMARCAL DE L'ALT PENEDÈS.,41.352086350339,1.7022056486284598,Vilafranca del Penedès,8,BARCELONA,144,GENERAL,N
81458,ÀPTIMA CENTRE CLÍNIC - MÚTUA DE TERRASSA,41.5633503500018,2.0164044000362598,Terrassa,8,BARCELONA,70,GENERAL,N
81461,INSTITUT CATALÀ D'ONCOLOGIA - HOSPITAL DURAN I REYNALS,41.344991230902885,2.109556419391533,"Hospitalet de Llobregat, L'",8,BARCELONA,126,ONCOLÓGICO,N
81483,SAR MONT MARTÍ,41.97455978393555,1.8791049718856807,Puig-reig,8,BARCELONA,20,GERIATRÍA Y/O LARGA ESTANCIA,N
81496,REGINA SAR,41.4089231,2.1497453999999996,Barcelona,8,BARCELONA,12,GERIATRÍA Y/O LARGA ESTANCIA,N
81537,CENTRE VALLPARADÍS,41.5649159781685,2.016601765397446,Terrassa,8,BARCELONA,81,GERIATRÍA Y/O LARGA ESTANCIA,N
81568,ITA MARESME,41.5498212504669,2.39706969879721,Argentona,8,BARCELONA,77,OTROS MONOGRÁFICOS,N
81574,CLÍNICA LLÚRIA,41.392472399999996,2.1598196,Barcelona,8,BARCELONA,40,PSIQUIÁTRICO,N
81580,ANTIC HOSPITAL DE SANT JAUME I SANTA MAGDALENA,41.53969620000001,2.4488857000000004,Mataró,8,BARCELONA,70,GERIATRÍA Y/O LARGA ESTANCIA,N
81593,PARC SANITARI SANT JOAN DE DÉU - NUMÀNCIA,41.3814815,2.1409201,Barcelona,8,BARCELONA,159,PSIQUIÁTRICO,N
81605,PRYTANIS HOSPITALET CENTRE SOCIOSANITARI,41.3642293,2.1299193,"Hospitalet de Llobregat, L'",8,BARCELONA,104,GERIATRÍA Y/O LARGA ESTANCIA,N
81616,COMUNITAT TERAPÈUTICA ARENYS DE MUNT,41.6102180480957,2.540863037109375,Arenys de Munt,8,BARCELONA,42,PSIQUIÁTRICO,N
81649,HOSPITAL SOCIOSANITARI PERE VIRGILI,41.4146294,2.1427334,Barcelona,8,BARCELONA,366,GERIATRÍA Y/O LARGA ESTANCIA,N
81661,BENITO MENNI COMPLEX ASSISTENCIAL EN SALUT MENTAL,41.6136231634548,2.29060512891742,Granollers,8,BARCELONA,30,PSIQUIÁTRICO,N
81672,HOSPITAL  SANITAS CIMA,41.3910715,2.1236325000000003,Barcelona,8,BARCELONA,83,GENERAL,N
81683,PARC SANITARI SANT JOAN DE DEU - BRIANS 1.,41.50362108015017,1.8797693853413575,Sant Esteve Sesrovires,8,BARCELONA,150,GENERAL,N
81694,INSTITUT CATALÀ D'ONCOLOGIA - HOSPITAL GERMANS TRIAS I PUJOL,41.4657916424567,2.23745106114237,Badalona,8,BARCELONA,36,ONCOLÓGICO,N
81706,CENTRE COLLSEROLA MUTUAL,41.4352315,2.1465794,Barcelona,8,BARCELONA,34,GERIATRÍA Y/O LARGA ESTANCIA,N
81717,CENTRE SOCIOSANITARI SARQUAVITAE SANT JORDI,41.358226200000004,2.0646336,Cornellà de Llobregat,8,BARCELONA,51,GERIATRÍA Y/O LARGA ESTANCIA,N
81728,HOSPITAL GENERAL PENITENCIARI,41.55572128295898,2.0554590225219727,Terrassa,8,BARCELONA,32,GENERAL,N
81739,CENTRE SOCIOSANITARI DE L'HOSPITALET - CONSORCI SANITARI INTEGRAL,41.37360447767143,2.106306159001004,"Hospitalet de Llobregat, L'",8,BARCELONA,123,GERIATRÍA Y/O LARGA ESTANCIA,N
81740,SAR LA SALUT JOSEP SERVAT,41.413971999999994,2.1572017000000003,Barcelona,8,BARCELONA,56,GERIATRÍA Y/O LARGA ESTANCIA,N
81751,CLÍNICA CREU BLANCA,41.3980235,2.1179765,Barcelona,8,BARCELONA,51,GENERAL,N
81762,HESTIA GRÀCIA,41.41024926164865,2.1621170831985896,Barcelona,8,BARCELONA,153,GERIATRÍA Y/O LARGA ESTANCIA,N
81784,CENTRE SOCIOSANITARI D'ESPLUGUES,41.38262542339445,2.0856720557656825,Esplugues de Llobregat,8,BARCELONA,131,GERIATRÍA Y/O LARGA ESTANCIA,N
81795,CENTRE SOCIOSANITARI RICARD FORTUNY,41.33948529999999,1.7047128,Vilafranca del Penedès,8,BARCELONA,187,GERIATRÍA Y/O LARGA ESTANCIA,N
81818,CENTRE RESIDENCIAL AMMA DIAGONAL,41.403998200000004,2.1953061000000003,Barcelona,8,BARCELONA,5,GERIATRÍA Y/O LARGA ESTANCIA,N
81829,CENTRE FÒRUM,41.4129917,2.2182832,Barcelona,8,BARCELONA,223,GERIATRÍA Y/O LARGA ESTANCIA,N
81830,CENTRE SOCIOSANITARI BLAUCLÍNIC DOLORS ALEU,41.4063903,2.1480932999999998,Barcelona,8,BARCELONA,174,GERIATRÍA Y/O LARGA ESTANCIA,N
81841,PARC SANITARI SANT JOAN DE DÉU - TIL·LERS,41.55359169506389,2.22612172642406,Mollet del Vallès,8,BARCELONA,10,PSIQUIÁTRICO,N
81874,CLÍNICA GALATEA,41.410512100000005,2.1138276,Barcelona,8,BARCELONA,22,PSIQUIÁTRICO,N
81885,HOSPITAL D'IGUALADA,41.588018299999995,1.6196735,Igualada,8,BARCELONA,280,GENERAL,N
81896,CENTRE SOCIAL I SANITARI FREDERICA MONTSENY,41.32162279999999,2.0180621,Viladecans,8,BARCELONA,76,GERIATRÍA Y/O LARGA ESTANCIA,N
81919,PARC SANITARI SANT JOAN DE DEU-SERVEIS SANITARIS CENTRE PENITENCIARI BRIANS-2,41.4742897000386,1.91287410146902,Sant Esteve Sesrovires,8,BARCELONA,152,GENERAL,N
81920,CENTRE INTEGRAL DE SERVEIS EN SALUT MENTAL COMUNITÀRIA,41.4064367,2.1555515,Barcelona,8,BARCELONA,25,PSIQUIÁTRICO,N
81931,CENTRE SOCIOSANITARI SANT JORDI DE LA VALL D'HEBRON,41.4306047,2.1445925,Barcelona,8,BARCELONA,57,GERIATRÍA Y/O LARGA ESTANCIA,N
81942,"LEPANT RESIDENCIAL QGG, SL",41.411340100000004,2.1673979,Barcelona,8,BARCELONA,10,GERIATRÍA Y/O LARGA ESTANCIA,N
81953,MAPFRE QUAVITAE BARCELONA,41.4100458,2.1729859,Barcelona,8,BARCELONA,38,GERIATRÍA Y/O LARGA ESTANCIA,N
81964,UNITAT POLIVALENT SALUT MENTAL BARCELONA-NORD,41.426926850014794,2.1376224500134597,Barcelona,8,BARCELONA,52,PSIQUIÁTRICO,N
81997,"CQM CLÍNIC MARESME, SL",41.535885799999996,2.4442681,Mataró,8,BARCELONA,10,GENERAL,N
82001,SERVEIS SANITARIS LA ROCA DEL VALLES 2,41.59151298269294,2.285445527435703,"Roca del Vallès, La",8,BARCELONA,34,GENERAL,N
82012,CLÍNICA DEL VALLÈS,41.532920800026204,2.12070674996755,Sabadell,8,BARCELONA,107,GENERAL,N
82023,CENTRE GERONTOLÒGIC AMMA SANT CUGAT,41.484111793643706,2.08547097735752,Sant Cugat del Vallès,8,BARCELONA,4,GERIATRÍA Y/O LARGA ESTANCIA,N
82034,SERVEIS SANITARIS SANT JOAN DE VILATORRADA,41.7486227001629,1.80901041424481,Sant Joan de Vilatorrada,8,BARCELONA,56,GENERAL,N
82045,CENTRE SOCIOSANITARI STAUROS,41.4395170724855,2.16209949676032,Barcelona,8,BARCELONA,49,GERIATRÍA Y/O LARGA ESTANCIA,N
82066,HOSPITAL DE SANT JOAN DESPÍ MOISÈS BROGGI,41.3675597504489,2.05570704928352,Sant Joan Despí,8,BARCELONA,328,GENERAL,N
82099,AMMA HORTA,41.418266521586645,2.125972829361205,Barcelona,8,BARCELONA,5,GERIATRÍA Y/O LARGA ESTANCIA,N
82112,UNITAT POLIVALENT BENITO MENNI EN SALUT MENTAL DE L'HOSPITALET-EL PRAT DE LLOBREGAT,41.3693432,2.1053577999999997,"Hospitalet de Llobregat, L'",8,BARCELONA,35,PSIQUIÁTRICO,N
82134,ITA MARESME,41.3970625,2.1488489,Barcelona,8,BARCELONA,56,OTROS MONOGRÁFICOS,N
82145,CENTRE SOCIOSANITARI DEL CENTRE INTEGRAL DE SALUT COTXERES,41.44276809692383,2.181020021438598,Barcelona,8,BARCELONA,209,GERIATRÍA Y/O LARGA ESTANCIA,N
82156,CLÍNICA SANT ANTONI,41.3560621,2.1433035,Barcelona,8,BARCELONA,224,GERIATRÍA Y/O LARGA ESTANCIA,N
82167,CLÍNICA DIAGONAL,41.3785738,2.0974338,Esplugues de Llobregat,8,BARCELONA,98,GENERAL,N
82178,HOSPITAL SOCIOSANITARI DE MOLLET,41.541092600000006,2.2113928,Mollet del Vallès,8,BARCELONA,109,GERIATRÍA Y/O LARGA ESTANCIA,N
82189,CENTRE SOCIOSANITARI ISABEL ROIG,41.443037100000005,2.1926145,Barcelona,8,BARCELONA,251,GERIATRÍA Y/O LARGA ESTANCIA,N
82190,IVÁN MAÑERO CLÍNIC,41.484111793643706,2.08547097735752,Sant Cugat del Vallès,8,BARCELONA,17,QUIRÚRGICO,N
82202,INSTITUT TRASTORN LÍMIT,41.475790350012005,2.0430533000313402,Sant Cugat del Vallès,8,BARCELONA,14,PSIQUIÁTRICO,N
82213,CENTRE D'HOSPITALITZACIÓ I HOSPITAL DE DIA TRASTORNS DE LA CONDUCTA,41.555747985839844,2.4004380702972408,Argentona,8,BARCELONA,40,PSIQUIÁTRICO,N
82224,SARQUAVITAE BONANOVA,41.4025599,2.1271637,Barcelona,8,BARCELONA,28,GERIATRÍA Y/O LARGA ESTANCIA,N
82236,CENTRE LA CREUETA,41.5495304003569,2.11363734965145,Sabadell,8,BARCELONA,46,GERIATRÍA Y/O LARGA ESTANCIA,N
82246,UNITAT TERAPÈUTICA-EDUCATIVA ACOMPANYA'M,41.4118164,2.1305641,Barcelona,8,BARCELONA,30,PSIQUIÁTRICO,N
90026,HOSPITAL FUENTE BERMEJA,42.34369428939579,-3.71241218642708,Burgos,9,BURGOS,0,PSIQUIÁTRICO,N
90047,HOSPITAL RECOLETAS DE BURGOS,42.3444859562268,-3.6825072803936805,Burgos,9,BURGOS,92,GENERAL,N
90050,HOSPITAL SAN JUAN DE DIOS DE BURGOS,42.3384832500239,-3.71043184995242,Burgos,9,BURGOS,160,GERIATRÍA Y/O LARGA ESTANCIA,N
90079,HOSPITAL SANTOS REYES,41.66931829999999,-3.6908646000000003,Aranda de Duero,9,BURGOS,123,GENERAL,N
90085,HOSPITAL RESIDENCIA ASISTIDA DE LA LUZ,41.662012939331866,-3.694371462263246,Aranda de Duero,9,BURGOS,75,GERIATRÍA Y/O LARGA ESTANCIA,N
90098,HOSPITAL SANTIAGO APÓSTOL,42.6754199500001,-2.9484403500167398,Miranda de Ebro,9,BURGOS,114,GENERAL,N
90133,COMPLEJO ASISTENCIAL UNIVERSITARIO DE BURGOS,42.3625940500196,-3.6814866500472903,Burgos,9,BURGOS,865,GENERAL,N
90155,HOSPITAL UNIVERSITARIO DE BURGOS,42.360036754720795,-3.68622710706598,Burgos,9,BURGOS,0,GENERAL,N
100015,HOSPITAL SAN PEDRO DE ALCÁNTARA,39.4665124767904,-6.369282669630421,Cáceres,10,CÁCERES,0,GENERAL,N
100020,HOSPITAL PROVINCIAL NUESTRA SEÑORA DE LA MONTAÑA,39.47621536254883,-6.370859146118164,Cáceres,10,CÁCERES,0,GENERAL,N
100041,HOSPITAL CIUDAD DE CORIA,37.284645899999994,-6.0520357,Coria,10,CÁCERES,103,GENERAL,N
100054,HOSPITAL CAMPO ARAÑUELO,39.88756561279297,-5.560554027557373,Navalmoral de la Mata,10,CÁCERES,102,GENERAL,N
100067,HOSPITAL VIRGEN DEL PUERTO,40.0500208759274,-6.085489946640429,Plasencia,10,CÁCERES,250,GENERAL,N
100073,HOSPITAL SOCIOSANITARIO DE PLASENCIA,40.03050231933594,-6.0882511138916025,Plasencia,10,CÁCERES,330,PSIQUIÁTRICO,N
100089,COMPLEJO HOSPITALARIO DE CÁCERES,39.47621536254883,-6.370859146118164,Cáceres,10,CÁCERES,520,GENERAL,N
100092,HOSPITAL QUIRÓN SALUD DE CÁCERES,39.4820333,-6.3636517999999995,Cáceres,10,CÁCERES,35,GENERAL,N
100106,CLÍNICA SOQUIMEX,40.0323804,-6.0848904,Plasencia,10,CÁCERES,20,GENERAL,N
100113,"CLINICA QUIRÚRGICA CACEREÑA, S.A-(CLÍNICA SAN FRANCISCO)",39.468823799999996,-6.3687989,Cáceres,10,CÁCERES,32,GENERAL,N
110012,HOSPITAL UNIVERSITARIO PUERTA DEL MAR,36.5088536,-6.2782743,Cádiz,11,CÁDIZ,738,GENERAL,N
110048,CLÍNICA LA SALUD,36.5320075,-6.2958509000000005,Cádiz,11,CÁDIZ,58,GENERAL,N
110051,HOSPITAL SAN RAFAEL,36.5328076,-6.3025371,Cádiz,11,CÁDIZ,280,GENERAL,N
110086,HOSPITAL  PUNTA DE EUROPA,36.129825592041016,-5.447755813598633,Algeciras,11,CÁDIZ,0,GENERAL,S
110103,CLÍNICA  LOS ÁLAMOS,36.7040381,-6.1306773,Jerez de la Frontera,11,CÁDIZ,15,GENERAL,N
110110,HOSPITAL UNIVERSITARIO DE JEREZ DE LA FRONTERA,36.68841901647521,-6.15417763376882,Jerez de la Frontera,11,CÁDIZ,498,GENERAL,N
110125,HOSPITAL SAN JUAN GRANDE,36.6910211393142,-6.148244116207299,Jerez de la Frontera,11,CÁDIZ,143,GENERAL,N
110146,HOSPITAL  DE LA LÍNEA DE LA CONCEPCIÓN,36.1626553500049,-5.3443514000551104,"Línea de la Concepción, La",11,CÁDIZ,180,GENERAL,S
110162,HOSPITAL GENERAL SANTA MARÍA DEL PUERTO,36.598277800430104,-6.2367803991332105,"Puerto de Santa María, El",11,CÁDIZ,238,GENERAL,N
110184,HOSPITAL UNIVERSITARIO DE PUERTO REAL,36.625348882402896,-6.2024691152322005,Puerto Real,11,CÁDIZ,319,GENERAL,N
110218,HOSPITAL VIRGEN DE LAS MONTAÑAS,36.8613510131836,-5.641657829284668,Villamartín,11,CÁDIZ,108,GENERAL,N
110223,HOSPITAL VIRGEN DEL CAMINO,36.767297419513895,-6.36049597919006,Sanlúcar de Barrameda,11,CÁDIZ,118,GENERAL,N
110239,HOSPITAL JEREZ PUERTA DEL SUR,36.672051440300606,-6.147998664223759,Jerez de la Frontera,11,CÁDIZ,98,GENERAL,N
110248,HOSPITAL VIAMED BAHÍA DE CÁDIZ,36.4208026,-6.1499842000000005,Chiclana de la Frontera,11,CÁDIZ,46,GENERAL,N
110259,HOSPITAL PUNTA DE EUROPA,36.0925823500979,-5.44619790007724,Algeciras,11,CÁDIZ,327,GENERAL,N
110260,HOSPITAL VIAMED NOVO SANCTI PETRI,36.41925430297852,-6.149415969848633,Chiclana de la Frontera,11,CÁDIZ,37,GENERAL,N
110271,CLÍNICA SERMAN - INSTITUTO MÉDICO,36.692899600000004,-6.1242278,Jerez de la Frontera,11,CÁDIZ,41,GENERAL,N
110282,HOSPITAL QUIRÓN CAMPO DE GIBRALTAR,36.17484664916992,-5.4327311515808105,"Barrios, Los",11,CÁDIZ,64,GENERAL,N
110293,HOSPITAL PUNTA EUROPA. UNIDAD DE CUIDADOS MEDIOS,36.129825592041016,-5.447755813598633,Algeciras,11,CÁDIZ,0,GERIATRÍA Y/O LARGA ESTANCIA,S
110305,HOSPITAL SAN CARLOS,36.4786731000348,-6.19407705015914,San Fernando,11,CÁDIZ,0,GENERAL,N
110316,HOSPITAL DE LA LÍNEA DE LA CONCEPCIÓN,36.16117858886719,-5.34825611114502,"Línea de la Concepción, La",11,CÁDIZ,243,GENERAL,N
120017,HOSPITAL GENERAL UNIVERSITARIO DE CASTELLÓN,40.003251068158995,-0.0426181769406883,Castellón de la Plana/Castelló de la Plana,12,CASTELLÓN,580,GENERAL,N
120038,HOSPITAL LA MAGDALENA,39.9949667,0.0190831,Castellón de la Plana/Castelló de la Plana,12,CASTELLÓN,128,GERIATRÍA Y/O LARGA ESTANCIA,N
120043,CONSORCIO HOSPITALARIO PROVINCIAL DE CASTELLÓN,39.9850356,-0.0454496,Castellón de la Plana/Castelló de la Plana,12,CASTELLÓN,257,GENERAL,N
120115,HOSPITAL COMARCAL DE VINARÒS,40.4644392016831,0.45096280382988496,Vinaròs,12,CASTELLÓN,150,GENERAL,N
120136,HOSPITAL UNIVERSITARIO DE LA PLANA,41.29508,-7.739310000000001,Vila-real,12,CASTELLÓN,258,GENERAL,N
120148,INSTITUTO DE TRAUMATOLOGIA DE UNIÓN DE MUTUAS (MATEPSS Nº 267),39.9936664,-0.026472700000000002,Castellón de la Plana/Castelló de la Plana,12,CASTELLÓN,28,TRAUMATOLOGÍA Y/O REHABILITACIÓN,N
120159,HOSPITAL REY D. JAIME,39.997225,-0.0360145,Castellón de la Plana/Castelló de la Plana,12,CASTELLÓN,96,GENERAL,N
120160,SERVICIOS SANITARIOS DEL CENTRO PENITENCIARIO DE CASTELLÓN II (ALBOCÀSSER),40.35626220703125,0.02536199986934662,Albocàsser,12,CASTELLÓN,64,OTRA FINALIDAD,N
130034,SERVICIOS SANITARIOS Y ASISTENCIALES,43.0063556903251,-7.564450770160071,Ciudad Real,13,CIUDAD REAL,85,PSIQUIÁTRICO,N
130049,HOSPITAL QUIRÓNSALUD CIUDAD REAL,38.9800696,-3.9388332000000004,Ciudad Real,13,CIUDAD REAL,47,GENERAL,N
130052,HOSPITAL GENERAL LA MANCHA CENTRO,39.3890017866116,-3.21956959757346,Alcázar de San Juan,13,CIUDAD REAL,353,GENERAL,N
130065,HOSPITAL VIRGEN DE ALTAGRACIA,-32.898048400878906,-60.90967178344727,Manzanares,13,CIUDAD REAL,118,GENERAL,N
130071,HOSPITAL SANTA BÁRBARA,38.68603515625,-4.112145900726318,Puertollano,13,CIUDAD REAL,141,GENERAL,N
130087,HOSPITAL GENERAL DE VALDEPEÑAS,38.76052856445313,-3.384104013442993,Valdepeñas,13,CIUDAD REAL,103,GENERAL,N
130127,HOSPITAL GENERAL DE CIUDAD REAL,38.98610305786133,-3.9272639751434326,Ciudad Real,13,CIUDAD REAL,564,GENERAL,N
130128,HOSPITAL GENERAL DE TOMELLOSO,39.174223750013105,-3.0090108500772406,Tomelloso,13,CIUDAD REAL,155,GENERAL,N
140023,HOSPITAL UNIVERSITARIO REINA SOFÍA,-31.387220000000003,-64.22803,Córdoba,14,CÓRDOBA,1233,GENERAL,N
140039,HOSPITAL LOS MORALES,-31.31363,-64.17116999999999,Córdoba,14,CÓRDOBA,0,GENERAL,N
140044,HOSPITAL MATERNO-INFANTIL DEL H.U. REINA SOFÍA,-31.387220000000003,-64.22803,Córdoba,14,CÓRDOBA,0,MATERNO-INFANTIL,N
140060,HOSPITAL PROVINCIAL,-31.387220000000003,-64.22803,Córdoba,14,CÓRDOBA,0,GENERAL,N
140076,HOSPITAL DE LA CRUZ ROJA DE CÓRDOBA,-32.80791,-63.8703,Córdoba,14,CÓRDOBA,138,GENERAL,N
140082,HOSPITAL SAN JUAN DE DIOS DE CÓRDOBA,-31.43842,-64.13135,Córdoba,14,CÓRDOBA,189,GENERAL,N
140116,HOSPITAL INFANTA MARGARITA,51.09328079223633,10.380292892456056,Cabra,14,CÓRDOBA,232,GENERAL,N
140121,HOSPITAL VALLE DE LOS PEDROCHES,38.377418518066406,-4.8483757972717285,Pozoblanco,14,CÓRDOBA,124,GENERAL,N
140195,HOSPITAL DE MONTILLA,37.39050674438477,-4.770464897155762,Montilla,14,CÓRDOBA,92,GENERAL,N
140207,HOSPITAL LA ARRUZAFA-INSTITUTO DE OFTALMOLOGÍA,37.9043757,-4.792300099999999,Córdoba,14,CÓRDOBA,4,OFTÁLMICO U ORL,N
140218,HOSPITAL DE ALTA RESOLUCIÓN DE PUENTE GENIL,37.168339210042,-3.59647070377453,Puente Genil,14,CÓRDOBA,24,GENERAL,N
140229,HOSPITAL DE ALTA RESOLUCIÓN VALLE DEL GUADIATO,38.3080646905904,-5.27048977165486,Peñarroya-Pueblonuevo,14,CÓRDOBA,17,GENERAL,N
140230,HOSPITAL GENERAL DEL H.U. REINA SOFÍA,-31.387220000000003,-64.22803,Córdoba,14,CÓRDOBA,0,GENERAL,N
140241,HOSPITAL QUIRONSALUD CÓRDOBA,-24.38888,-65.10523,Córdoba,14,CÓRDOBA,115,GENERAL,N
150011,COMPLEXO HOSPITALARIO UNIVERSITARIO A CORUÑA,43.34491974071332,-8.386633459257428,"Coruña, A",15,A CORUÑA,1341,GENERAL,N
150026,HOSPITAL UNIVERSITARIO A CORUÑA,43.34491974071332,-8.386633459257428,"Coruña, A",15,A CORUÑA,0,GENERAL,N
150032,HOSPITAL TERESA HERRERA (MATERNO-INFANTIL),43.344563050064295,-8.38556075016275,"Coruña, A",15,A CORUÑA,0,GENERAL,N
150047,HOSPITAL MARITIMO DE OZA,43.346707,-8.385901299999999,"Coruña, A",15,A CORUÑA,0,GENERAL,N
150050,CENTRO ONCOLOXICO DE GALICIA,43.3373588000001,-8.38997054999773,"Coruña, A",15,A CORUÑA,56,ONCOLÓGICO,N
150063,HOSPITAL QUIRONSALUD A CORUÑA,43.328282,-8.3997724,"Coruña, A",15,A CORUÑA,127,GENERAL,N
150079,HOSPITAL SAN RAFAEL,43.344889241884616,-8.38657330231926,"Coruña, A",15,A CORUÑA,120,GENERAL,N
150085,HOSPITAL HM MODELO,43.3665265,-8.4185222,"Coruña, A",15,A CORUÑA,0,GENERAL,N
150102,MATERNIDAD HM BELEN,43.3657747,-8.4146976,"Coruña, A",15,A CORUÑA,0,GENERAL,N
150124,HOSPITAL ABENTE Y LAGO,43.36842555193271,-8.39061846950866,"Coruña, A",15,A CORUÑA,0,GENERAL,N
150130,COMPLEXO HOSPITALARIO UNIVERSITARIO DE FERROL,43.48838806152344,-8.222509384155272,Ferrol,15,A CORUÑA,457,GENERAL,N
150145,HOSPITAL UNIVERSITARIO ARQUITECTO MARCIDE,43.48838806152344,-8.222509384155272,Ferrol,15,A CORUÑA,0,GENERAL,N
150177,HOSPITAL JUAN CARDONA,43.48838806152344,-8.222509384155272,Ferrol,15,A CORUÑA,150,GENERAL,N
150183,HOSPITAL NAVAL,43.48838806152344,-8.222509384155272,Ferrol,15,A CORUÑA,0,GENERAL,N
150200,COMPLEXO HOSPITALARIO UNIVERSITARIO DE SANTIAGO,42.8681556000407,-8.56278304996661,Santiago de Compostela,15,A CORUÑA,1395,GENERAL,N
150217,HOSPITAL CLINICO UNIVERSITARIO DE SANTIAGO,42.8681556000407,-8.56278304996661,Santiago de Compostela,15,A CORUÑA,0,GENERAL,N
150222,HOSPITAL GIL CASARES,42.8681556000407,-8.56278304996661,Santiago de Compostela,15,A CORUÑA,0,GENERAL,N
150238,HOSPITAL MEDICO CIRURXICO DE CONXO,42.8731939502159,-8.54086245007092,Santiago de Compostela,15,A CORUÑA,0,GENERAL,N
150243,HOSPITAL PSIQUIATRICO DE CONXO,42.88062286376953,-8.54660701751709,Santiago de Compostela,15,A CORUÑA,0,GENERAL,N
150256,HOSPITAL HM ESPERANZA,42.8784926,-8.5518001,Santiago de Compostela,15,A CORUÑA,0,GENERAL,N
150269,HOSPITAL HM ROSALEDA,42.871857500000004,-8.5465162,Santiago de Compostela,15,A CORUÑA,0,GENERAL,N
150308,SANATORIO LA ROBLEDA,42.849998474121094,-8.050000190734862,"Pino, O",15,A CORUÑA,96,PSIQUIÁTRICO,N
150336,HOSPITAL DA BARBANZA (*),42.55357360839844,-8.989808082580566,Ribeira,15,A CORUÑA,81,GENERAL,N
150341,HOSPITAL VIRXE DA XUNQUEIRA (*),36.088539123535156,-106.05623626708984,Cee,15,A CORUÑA,74,GENERAL,N
150354,HM MODELO (GRUPO),43.3665265,-8.4185222,"Coruña, A",15,A CORUÑA,146,GENERAL,N
150365,HOSPITAL HM ROSALEDA - HM LA ESPERANZA,42.871857500000004,-8.5465162,Santiago de Compostela,15,A CORUÑA,119,GENERAL,N
160014,HOSPITAL VIRGEN DE LA LUZ,40.07548,-2.1468735,Cuenca,16,CUENCA,388,GENERAL,N
160053,HOSPITAL RECOLETAS CUENCA S.L.U.,-2.89845,-79.01191,Cuenca,16,CUENCA,30,MÉDICO-QUIRÚRGICO,N
170010,HOSPITAL UNIVERSITARI DE GIRONA DR. JOSEP TRUETA,46.62378692626953,2.4555580615997314,Girona,17,GIRONA,431,GENERAL,N
170031,CLÍNICA BOFILL,41.155692166804,1.21092600983242,Girona,17,GIRONA,47,GENERAL,N
170059,CLÍNICA GIRONA,42.17756274496699,2.4920329730339894,Girona,17,GIRONA,123,GENERAL,N
170062,CLÍNICA QUIRÚRGICA ONYAR,41.97635,2.8250257000000003,Girona,17,GIRONA,38,GENERAL,N
170097,CLÍNICA SALUS INFIRMORUM,42.1151119864566,2.761416511583811,Banyoles,17,GIRONA,100,GERIATRÍA Y/O LARGA ESTANCIA,N
170101,HOSPITAL DE SANT JAUME,40.645790000000005,-75.37100000000001,Blanes,17,GIRONA,23,GERIATRÍA Y/O LARGA ESTANCIA,N
170118,HOSPITAL DE CAMPDEVÀNOL,42.222550154015,2.1666055527325296,Campdevànol,17,GIRONA,80,GENERAL,N
170123,HOSPITAL DE FIGUERES,42.26749801635742,2.9608399868011475,Figueres,17,GIRONA,168,GENERAL,N
170139,CLÍNICA SANTA CREU,42.26204824158536,2.961113601722429,Figueres,17,GIRONA,35,GENERAL,N
170160,HOSPITAL SOCIOSANITARI DE LLORET DE MAR,41.700913,2.8532583,Lloret de Mar,17,GIRONA,63,GERIATRÍA Y/O LARGA ESTANCIA,N
170176,HOSPITAL D'OLOT I COMARCAL DE LA GARROTXA,42.11587585605997,2.766886796901607,Olot,17,GIRONA,137,GENERAL,N
170195,HOSPITAL DE PALAMÓS,34.88541852826089,-83.96082576819998,Palamós,17,GIRONA,136,GENERAL,N
170216,HOSPITAL PSIQUIÀTRIC,9.93597,-84.08556,Salt,17,GIRONA,593,PSIQUIÁTRICO,N
170221,RESIDÈNCIA DE GENT GRAN PUIG D'EN ROCA,41.995296100000004,2.8131494,Girona,17,GIRONA,55,GERIATRÍA Y/O LARGA ESTANCIA,N
170237,HOSPITAL COMARCAL DE BLANES,41.6879456,2.8019279,Blanes,17,GIRONA,121,GENERAL,N
170242,RESIDÈNCIA GERIÀTRICA MARIA GAY,42.1830804,2.4897473,Girona,17,GIRONA,24,GERIATRÍA Y/O LARGA ESTANCIA,N
170255,HOSPITAL SOCIOSANITARI MUTUAM GIRONA,43.25661849975586,-0.7611449956893921,Girona,17,GIRONA,90,GERIATRÍA Y/O LARGA ESTANCIA,N
170277,CENTRE SOCIOSANITARI DE PUIGCERDÀ,42.43134689331055,1.9276549816131592,Puigcerdà,17,GIRONA,52,GERIATRÍA Y/O LARGA ESTANCIA,N
170288,CENTRE SOCIOSANITARI BERNAT JAUME,42.26749801635742,2.9608399868011475,Figueres,17,GIRONA,121,GERIATRÍA Y/O LARGA ESTANCIA,N
170299,INSTITUT CATALÀ D'ONCOLOGIA GIRONA - HOSPITAL JOSEP TRUETA,46.62378692626953,2.4555580615997314,Girona,17,GIRONA,26,ONCOLÓGICO,N
170301,HOSPITAL SANTA CATERINA-IAS,42.14492416381836,24.750322341918945,Salt,17,GIRONA,178,GENERAL,N
170312,CENTRE PALAMÓS GENT GRAN,42.03334872668221,-88.32655363414142,Palamós,17,GIRONA,100,GERIATRÍA Y/O LARGA ESTANCIA,N
170323,CENTRE SOCIOSANITARI PARC HOSPITALARI MARTÍ I JULIÀ,9.93597,-84.08556,Salt,17,GIRONA,120,GERIATRÍA Y/O LARGA ESTANCIA,N
170334,HOSPITAL DE CERDANYA / HÔPITAL DE CERDAGNE,42.43134689331055,1.9276549816131592,Puigcerdà,17,GIRONA,66,GENERAL,N
180016,HOSPITAL GENERAL DEL H.U. VIRGEN DE LAS NIEVES,37.1880513,-3.6108413,Granada,18,GRANADA,0,GENERAL,N
180042,HOSPITAL DE NEUROTRAUMATOLOGÍA Y REHABILITACIÓN,41.5837004,1.6235743999999999,Granada,18,GRANADA,0,GENERAL,N
180055,HOSPITAL SAN RAFAEL,41.5837734,1.6232289,Granada,18,GRANADA,166,GENERAL,N
180074,HOSPITAL DE LA INMACULADA CONCEPCIÓN,37.1639019,-3.6080263999999995,Granada,18,GRANADA,95,QUIRÚRGICO,N
180093,HOSPITAL DE BAZA,37.492746000173,-2.76622310020589,Baza,18,GRANADA,117,GENERAL,N
180107,HOSPITAL SANTA ANA,36.752138650035,-3.5211576998471004,Motril,18,GRANADA,187,GENERAL,N
180114,HOSPITAL UNIVERSITARIO VIRGEN DE LAS NIEVES,37.1880513,-3.6108413,Granada,18,GRANADA,711,GENERAL,N
180122,HOSPITAL DE ALTA RESOLUCIÓN DE GUADIX,37.30039596557617,-3.134582996368408,Guadix,18,GRANADA,50,GENERAL,N
180133,HOSPITAL DE ALTA RESOLUCIÓN DE LOJA,-3.9824699999999997,-79.20293000000001,Loja,18,GRANADA,22,GENERAL,N
180146,HOSPITAL VITHAS LA SALUD,37.1693199009519,-3.5845324599169506,Granada,18,GRANADA,77,GENERAL,N
180150,HOSPITAL UNIVERSITARIO SAN CECILIO,37.17648315429688,-3.5979371070861816,Granada,18,GRANADA,543,GENERAL,N
180166,HOSPITAL MATERNO-INFANTIL VIRGEN DE LAS NIEVES,37.1880513,-3.6108413,Granada,18,GRANADA,0,MATERNO-INFANTIL,N
190019,HOSPITAL UNIVERSITARIO DE GUADALAJARA,20.6751708984375,-103.34732818603516,Guadalajara,19,GUADALAJARA,432,GENERAL,N
190030,CLÍNICA LA ANTIGUA,20.62973,-103.2494,Guadalajara,19,GUADALAJARA,57,GENERAL,N
190045,CLÍNICA DR. SANZ VÁZQUEZ,40.6300752,-3.1657249,Guadalajara,19,GUADALAJARA,40,GENERAL,N
190061,U.R.R. DE ENFERMOS PSÍQUICOS ALCOHETE,-2.8887290954589844,-78.99838256835938,Yebes,19,GUADALAJARA,165,PSIQUIÁTRICO,N
190077,INSTITUTO DE ENFERMEDADES NEUROLÓGICAS DE CASTILLA-LA MANCHA,20.5794,-103.44633,Guadalajara,19,GUADALAJARA,147,OTROS MONOGRÁFICOS,N
200049,MUTUALIA-CLINICA PAKEA,43.3115471,-2.0135369,Donostia/San Sebastián,20,GUIPÚZCOA,29,QUIRÚRGICO,N
200071,HOSPITAL RICARDO BERMINGHAM (FUNDACIÓN MATIA),43.3038614,-2.0014762,Donostia/San Sebastián,20,GUIPÚZCOA,105,GERIATRÍA Y/O LARGA ESTANCIA,N
200104,"POLICLÍNICA GIPUZKOA, S.A.",43.2899179,-1.980925,Donostia/San Sebastián,20,GUIPÚZCOA,149,GENERAL,N
200126,HOSPITAL QUIRÓN SALUD DONOSTIA,43.3160761,-1.9731811000000001,Donostia/San Sebastián,20,GUIPÚZCOA,48,GENERAL,N
200132,FUNDACIÓN ONKOLOGIKOA FUNDAZIOA,43.2912461,-1.9737852999999999,Donostia/San Sebastián,20,GUIPÚZCOA,45,ONCOLÓGICO,N
200163,ORGANIZACIÓN SANITARIA INTEGRADA BIDASOA (OSI BIDASOA),43.36252975463867,-1.7914979457855225,Hondarribia,20,GUIPÚZCOA,101,GENERAL,N
200185,ORGANIZACIÓN SANITARIA INTEGRADA ALTO DEBA,42.85594879999999,-2.6664112,Arrasate/Mondragón,20,GUIPÚZCOA,90,GENERAL,N
200198,HOSPITAL AITA MENNI,43.0634287,-2.4919623,Arrasate/Mondragón,20,GUIPÚZCOA,442,PSIQUIÁTRICO,N
200202,HOSPITAL PSIQUIÁTRICO SAN JUAN DE DIOS,43.0503588,-2.4853302999999998,Arrasate/Mondragón,20,GUIPÚZCOA,299,PSIQUIÁTRICO,N
200219,"CLINICA SANTA MARÍA DE LA ASUNCIÓN, (INVIZA, S.A.)",43.1407902,-2.0688705,Tolosa,20,GUIPÚZCOA,120,GENERAL,N
200230,"SANATORIO DE USURBIL, S.L.",43.268807176436205,-2.05111425973248,Usurbil,20,GUIPÚZCOA,80,PSIQUIÁTRICO,N
200245,HOSPITAL DE ZUMARRAGA,43.090476989746094,-2.3132200241088867,Zumarraga,20,GUIPÚZCOA,128,GENERAL,N
200258,HOSPITAL DE MENDARO,43.25194549560547,-2.386475086212158,Mendaro,20,GUIPÚZCOA,119,GENERAL,N
200261,HOSPITAL UNIVERSITARIO DONOSTIA-DONOSTIA UNIBERTSITATE OSPITALEA,43.2929076,-1.9687197,Donostia/San Sebastián,20,GUIPÚZCOA,1054,GENERAL,N
200271,HOSPITAL SAN JUAN DE DIOS DONOSTIA,43.3003031,-1.9772506999999997,Donostia/San Sebastián,20,GUIPÚZCOA,81,PSIQUIÁTRICO,N
210025,HOSPITAL INFANTA ELENA,37.25714492797852,-6.949538230895996,Huelva,21,HUELVA,304,GENERAL,N
210031,HOSPITAL VÁZQUEZ DÍAZ,37.38264083862305,-5.996294975280763,Huelva,21,HUELVA,0,GENERAL,N
210059,HOSPITAL BLANCA PALOMA,37.28000719675167,-6.940137543031077,Huelva,21,HUELVA,203,GENERAL,N
210084,CLÍNICA LOS NARANJOS,37.2624393,-6.949146000000001,Huelva,21,HUELVA,25,GENERAL,N
210097,HOSPITAL DE RIOTINTO,37.692287008022355,-6.597381241696872,Minas de Riotinto,21,HUELVA,118,GENERAL,N
210101,HOSPITAL UNIVERSITARIO JUAN RAMÓN JIMÉNEZ,37.2842341995182,-6.9446989700684,Huelva,21,HUELVA,891,GENERAL,N
210123,HOSPITAL JUAN RAMÓN JIMÉNEZ,37.2842341995182,-6.9446989700684,Huelva,21,HUELVA,0,GENERAL,S
210137,HOSPITAL COSTA DE LA LUZ,37.275339477924206,-7.00416054652848,Huelva,21,HUELVA,56,GENERAL,N
210148,HOSPITAL VIRGEN DE LA BELLA,37.2600472002106,-7.19479339905423,Lepe,21,HUELVA,61,GENERAL,N
220015,HOSPITAL GENERAL SAN JORGE,42.132512058875115,-0.4174794445568505,Huesca,22,HUESCA,297,GENERAL,N
220020,CENTRO DE REHAB. PSICOSOCIAL SANTO CRISTO DE LOS MILAGROS,42.2229462,-0.4041538,Huesca,22,HUESCA,110,PSIQUIÁTRICO,N
220036,HOSPITAL SAGRADO CORAZÓN DE JESÚS,42.141183899999994,-0.400848,Huesca,22,HUESCA,70,GERIATRÍA Y/O LARGA ESTANCIA,N
220041,HOSPITAL VIAMED SANTIAGO,41.7949994,-0.15668829999999997,Huesca,22,HUESCA,40,GENERAL,N
220054,HOSPITAL DE BARBASTRO,42.03479766845703,0.12398000061511992,Barbastro,22,HUESCA,172,GENERAL,N
220089,HOSPITAL DE JACA.SALUD,42.5759899455752,-0.5450560419672271,Jaca,22,HUESCA,50,GENERAL,N
220105,CENTRO SANITARIO BAJO CINCA-BAIX CINCA,41.5271830034829,0.33558252242301895,Fraga,22,HUESCA,20,OTRA FINALIDAD,N
230011,HOSPITAL GENERAL DEL H.U. DE JAÉN,37.774397799999996,-3.7914092000000004,Jaén,23,JAÉN,0,GENERAL,N
230026,HOSPITAL DOCTOR SAGAZ,37.76577377319336,-3.7893929481506343,Jaén,23,JAÉN,0,GENERAL,N
230047,HOSPITAL NEUROTRAUMATOLÓGICO DEL H.U. DE JAÉN,37.76577377319336,-3.7893929481506343,Jaén,23,JAÉN,0,TRAUMATOLOGÍA Y/O REHABILITACIÓN,N
230063,CLÍNICA CRISTO REY,37.7755591,-3.7889952000000005,Jaén,23,JAÉN,39,QUIRÚRGICO,N
230079,HOSPITAL SAN AGUSTÍN,21.80252,-100.94421,Linares,23,JAÉN,204,GENERAL,N
230098,HOSPITAL SAN JUAN DE LA CRUZ,38.01754261662406,-3.3817129670324086,Úbeda,23,JAÉN,231,GENERAL,N
230119,HOSPITAL UNIVERSITARIO DE JAÉN,37.774397799999996,-3.7914092000000004,Jaén,23,JAÉN,805,GENERAL,N
230145,HOSPITAL ALTO GUADALQUIVIR,38.0393977003551,-4.03316782352958,Andújar,23,JAÉN,67,GENERAL,N
230151,HOSPITAL MATERNO-INFANTIL DEL H.U. DE JAÉN,37.774397799999996,-3.7914092000000004,Jaén,23,JAÉN,0,MATERNO-INFANTIL,N
230162,HOSPITAL DE ALTA RESOLUCIÓN SIERRA DE SEGURA,38.35322570800781,-2.804408073425293,Puente de Génave,23,JAÉN,24,GENERAL,N
230173,HOSPITAL DE ALTA RESOLUCIÓN DE ALCAUDETE,37.586878600000006,-4.0808812,Alcaudete,23,JAÉN,16,GENERAL,N
230184,HOSPITAL DE ALTA RESOLUCIÓN DE ALCALÁ LA REAL,37.4555785559127,-3.92456990416696,Alcalá la Real,23,JAÉN,28,GENERAL,N
240016,HOSPITAL DE LEÓN,51.09328079223633,10.380292892456056,León,24,LEÓN,0,GENERAL,N
240021,HOSPITAL MONTE SAN ISIDRO,43.29235458374024,-5.993384838104247,León,24,LEÓN,0,GERIATRÍA Y/O LARGA ESTANCIA,N
240055,REGLA HM HOSPITALES,42.6018153500012,-5.56778919998567,León,24,LEÓN,130,GENERAL,N
240074,HOSPITAL HM SAN FRANCISCO,42.5899879,-5.5725262,León,24,LEÓN,75,GENERAL,N
240093,HOSPITAL SANTA ISABEL,42.5766185,-5.5435996,León,24,LEÓN,0,PSIQUIÁTRICO,N
240135,HOSPITAL EL BIERZO,42.5700722747921,-6.643592145667,Ponferrada,24,LEÓN,408,GENERAL,N
240140,HOSPITAL DE LA REINA,42.5414315,-6.592905,Ponferrada,24,LEÓN,72,GENERAL,N
240188,HOSPITAL SAN JUAN DE DIOS,42.6076665,-5.593575599999999,San Andrés del Rabanedo,24,LEÓN,297,GENERAL,N
240191,COMPLEJO ASISTENCIAL UNIVERSITARIO DE LEÓN,37.963417053222656,-6.74574613571167,León,24,LEÓN,1056,GENERAL,N
240205,CLÍNICA ALTOLLANO,42.62305435,-5.570749299999999,Villaquilambre,24,LEÓN,110,GENERAL,N
240212,CLÍNICA PONFERRADA,42.563071150127705,-6.63147049975673,Ponferrada,24,LEÓN,46,GENERAL,N
240220,HOSPITAL VALLE DE LACIANA,43.29235458374024,-5.993384838104247,Villablino,24,LEÓN,15,GERIATRÍA Y/O LARGA ESTANCIA,N
250019,HOSPITAL UNIVERSITARI ARNAU DE VILANOVA DE LLEIDA.,41.62524069886199,0.6131007482300955,Lleida,25,LLEIDA,463,GENERAL,N
250024,HOSPITAL SANTA MARIA,41.6229539,0.6164341999999999,Lleida,25,LLEIDA,229,GENERAL,N
250045,VITHAS HOSPITAL MONTSERRAT,41.612843,0.6206528,Lleida,25,LLEIDA,47,GENERAL,N
250058,"CLÍNICA PERPETUO SOCORRO DE LÉRIDA, GRUPO HLA, SLU",41.614166259765625,0.6258029937744141,Lleida,25,LLEIDA,58,GENERAL,N
250061,CLÍNICA TERRES DE PONENT,41.6222011,0.6264548000000001,Lleida,25,LLEIDA,123,GENERAL,N
250077,CLÍNICA PSIQUIÀTRICA BELLAVISTA,41.626987799999995,0.6080446,Lleida,25,LLEIDA,75,PSIQUIÁTRICO,N
250117,FUNDACIÓ SANT HOSPITAL.,42.3548666,1.4606997,"Seu d'Urgell, La",25,LLEIDA,88,GENERAL,N
250138,"CENTRE SANITARI DEL SOLSONÈS, FPC",18.09490776062012,120.77063751220705,Solsona,25,LLEIDA,32,GERIATRÍA Y/O LARGA ESTANCIA,N
250143,HOSPITAL COMARCAL DEL PALLARS,42.164641103477,0.8970133609863779,Tremp,25,LLEIDA,63,GENERAL,N
250156,ESPITAU VAL D'ARAN,42.70165252685547,0.7956380248069763,Vielha e Mijaran,25,LLEIDA,31,GENERAL,N
250169,HESTIA BALAGUER.,41.789234368053,0.8162853713923779,Balaguer,25,LLEIDA,120,GERIATRÍA Y/O LARGA ESTANCIA,N
250175,RESIDÈNCIA TERRAFERMA,41.6671142578125,0.5552970170974731,Alpicat,25,LLEIDA,137,GERIATRÍA Y/O LARGA ESTANCIA,N
250181,"CASTELL D'OLIANA RESIDENCIAL,S.L",42.0838468941543,1.30364306429087,Oliana,25,LLEIDA,20,PSIQUIÁTRICO,N
250209,HOSPITAL JAUME NADAL MEROLES,41.614166259765625,0.6258029937744141,Lleida,25,LLEIDA,126,GERIATRÍA Y/O LARGA ESTANCIA,N
250210,SANT JOAN DE DÉU TERRES DE LLEIDA,41.626802000000005,0.6078432,Almacelles,25,LLEIDA,29,PSIQUIÁTRICO,N
250221,REEIXIR,41.5481071472168,0.825410008430481,Juneda,25,LLEIDA,44,PSIQUIÁTRICO,N
250232,HOSPITAL SANT JOAN DE DÉU LLEIDA,41.60030313572703,0.6354294594369034,Lleida,25,LLEIDA,130,PSIQUIÁTRICO,N
260012,COMPLEJO HOSPITALARIO SAN MILLAN SAN PEDRO DE LA RIOJA,42.46567916870117,-2.4499828815460205,Logroño,26,LA RIOJA,590,GENERAL,N
260027,HOSPITAL SAN PEDRO,42.3555711693095,-2.39168450815573,Logroño,26,LA RIOJA,0,GENERAL,N
260048,HOSPITAL GENERAL DE LA RIOJA,33.786982549988196,-118.32412810353097,Logroño,26,LA RIOJA,0,GENERAL,N
260051,"POLICLÍNICO RIOJANO NUESTRA SEÑORA DE VALVANERA, S.A.",42.0795798502709,-1.8063864002832402,Logroño,26,LA RIOJA,87,GENERAL,N
260099,FUNDACIÓN HOSPITAL CALAHORRA,42.46567916870117,-2.4499828815460205,Calahorra,26,LA RIOJA,80,GENERAL,N
260109,CLÍNICA LOS MANZANOS,42.4225849509388,-2.45734719935392,Lardero,26,LA RIOJA,52,MÉDICO-QUIRÚRGICO,N
260110,CENTRO ASISTENCIAL DE ALBELDA DE IREGUA,42.363836592653,-2.4798285240270763,Albelda de Iregua,26,LA RIOJA,140,PSIQUIÁTRICO,N
260121,CENTRO SOCIOSANITARIO DE CONVALECENCIA LOS JAZMINES,39.4955485,-2.8749919999999998,Haro,26,LA RIOJA,26,GERIATRÍA Y/O LARGA ESTANCIA,N
260132,CENTRO  SOCIOSANITARIO  DE CONVALECENCIA NUESTRA SEÑORA VIRGEN DEL CARMEN,42.239895415000795,-1.7644258321355701,Calahorra,26,LA RIOJA,75,GERIATRÍA Y/O LARGA ESTANCIA,N
270018,COMPLEXO HOSPITALARIO UNIVERSITARIO DE LUGO,43.0199512083889,-7.5322827885209405,Lugo,27,LUGO,848,GENERAL,N
270039,HOSPITAL DE CALDE (PSIQUIATRICO),43.0120964050293,-7.555830955505371,Lugo,27,LUGO,0,GENERAL,N
270057,HOSPITAL POLUSA,42.99696445003511,-7.56742389996135,Lugo,27,LUGO,97,GENERAL,N
270076,SANATORIO NOSA SEÑORA DOS OLLOS GRANDES,-34.86963,-56.10415,Lugo,27,LUGO,69,GENERAL,N
270095,HOSPITAL PUBLICO DA MARIÑA (*),43.65594482421875,-7.363513946533202,Burela,27,LUGO,139,GENERAL,N
270109,HOSPITAL DE MONFORTE (*),42.525044000040396,-7.5153145502464005,Monforte de Lemos,27,LUGO,140,GENERAL,N
270122,HOSPITAL UNIVERSITARIO LUCUS AUGUSTI,43.0199512083889,-7.5322827885209405,Lugo,27,LUGO,0,GENERAL,N
280014,HOSPITAL UNIVERSITARIO LA PAZ,40.4802314,-3.6863681000000006,Madrid,28,MADRID,0,GENERAL,N
280029,HOSPITAL RAMÓN Y CAJAL,40.7819844,-3.6912193999999996,Madrid,28,MADRID,901,GENERAL,N
280035,HOSPITAL UNIVERSITARIO 12 DE OCTUBRE,32.7490210000001,-116.98027395001101,Madrid,28,MADRID,1196,GENERAL,N
280072,HOSPITAL CLÍNICO SAN CARLOS,40.4397712971431,-3.71911366313732,Madrid,28,MADRID,861,GENERAL,N
280091,HOSPITAL VIRGEN DE LA TORRE,40.3810809,-3.6190587,Madrid,28,MADRID,0,OTROS MONOGRÁFICOS,N
280112,HOSPITAL UNIVERSITARIO SANTA CRISTINA,40.4217412,-3.6713165,Madrid,28,MADRID,156,GENERAL,N
280127,HOSPITAL UNIVERSITARIO DE LA PRINCESA,40.434362,-3.6756953,Madrid,28,MADRID,524,GENERAL,N
280133,HOSPITAL INFANTIL UNIVERSITARIO NIÑO JESUS,40.4138896,-3.6768591,Madrid,28,MADRID,170,INFANTIL,N
280148,HOSPITAL CENTRAL DE LA CRUZ ROJA SAN JOSÉ Y SANTA ADELA,40.4472853,-3.7073237999999997,Madrid,28,MADRID,154,GENERAL,N
280164,HOSPITAL CARLOS III,40.4749537,-3.6938473,Madrid,28,MADRID,0,GENERAL,N
280210,HOSPITAL CANTOBLANCO,40.5545434,-3.7103159,Madrid,28,MADRID,0,GENERAL,N
280225,COMPLEJO HOSPITALARIO GREGORIO MARAÑÓN,40.4189868,-3.6699309,Madrid,28,MADRID,1349,GENERAL,N
280246,HOSPITAL GENERAL UNIVERSITARIO GREGORIO MARAÑÓN,40.4189868,-3.6699309,Madrid,28,MADRID,0,GENERAL,N
280259,INSTITUTO PROVINCIAL DE REHABILITACIÓN,40.4331325,-3.6727051,Madrid,28,MADRID,0,GERIATRÍA Y/O LARGA ESTANCIA,N
280262,HOSPITAL DR. R. LAFORA,40.554463,-3.7097443,Madrid,28,MADRID,334,PSIQUIÁTRICO,N
280323,SANATORIO NUESTRA SEÑORA DEL ROSARIO,40.43205,-3.6799215,Madrid,28,MADRID,176,GENERAL,N
280339,HOSPITAL SAN RAFAEL,40.4523054,-3.6814876000000005,Madrid,28,MADRID,188,GENERAL,N
280344,HOSPITAL DE LA V.O.T. DE SAN FRANCISCO DE ASÍS,40.409047799999996,-3.7139122,Madrid,28,MADRID,72,GENERAL,N
280357,HOSPITAL QUIRÓNSALUD SAN JOSÉ,10.41667,-75.44641999999999,Madrid,28,MADRID,84,QUIRÚRGICO,N
280360,HOSPITAL BEATA MARÍA ANA. HH. HOSPITALARIAS SGDO. C. DE JESÚS,40.4180244,-3.6684472,Madrid,28,MADRID,160,MÉDICO-QUIRÚRGICO,N
280376,CLÍNICA SANTA ELENA,40.445738899999995,-3.7170329,Madrid,28,MADRID,76,GENERAL,N
280382,HOSPITAL SAN FRANCISCO DE ASÍS,40.4427855,-3.6835095,Madrid,28,MADRID,168,GENERAL,N
280395,CLÍNICA SAN MIGUEL,40.4600755,-3.6602648,Madrid,28,MADRID,94,PSIQUIÁTRICO,N
280409,CLÍNICA NUESTRA SRA. DE LA PAZ,40.4569105,-3.6617496,Madrid,28,MADRID,99,PSIQUIÁTRICO,N
280416,FUNDACIÓN INSTITUTO SAN JOSÉ,40.3617957,-3.7746353999999998,Madrid,28,MADRID,259,GERIATRÍA Y/O LARGA ESTANCIA,N
280421,HOSPITAL UNIVERSITARIO FUNDACIÓN JIMÉNEZ DÍAZ,40.437225299999994,-3.7200013999999997,Madrid,28,MADRID,659,GENERAL,N
280442,HOSPITAL VIRGEN DEL MAR,40.459496,-3.6785685,Madrid,28,MADRID,76,GENERAL,N
280455,"HESTIA MADRID (CLÍNICA SEAR, S.A.)",40.5541201,-3.7093633,Madrid,28,MADRID,250,GERIATRÍA Y/O LARGA ESTANCIA,N
280468,HOSPITAL RUBER JUAN BRAVO 39,40.4327215,-3.6776063999999997,Madrid,28,MADRID,70,GENERAL,N
280474,HOSPITAL VITHAS NUESTRA SEÑORA DE AMÉRICA,40.4497307,-3.6519277999999997,Madrid,28,MADRID,100,GENERAL,N
280528,"HOSPITAL VIRGEN DE LA PALOMA, S.A.",40.733630700000006,-3.5809406999999998,Madrid,28,MADRID,92,QUIRÚRGICO,N
280534,"CLÍNICA LA LUZ, S.L.",40.44417,-3.7137758,Madrid,28,MADRID,180,MÉDICO-QUIRÚRGICO,N
280549,FUENSANTA S.L. (CLÍNICA FUENSANTA),40.4401349,-3.640106,Madrid,28,MADRID,30,QUIRÚRGICO,N
280552,HOSPITAL RUBER JUAN BRAVO 49,40.432665500000006,-3.6763487,Madrid,28,MADRID,163,GENERAL,N
280565,HOSPITAL RUBER INTERNACIONAL,40.4894258,-3.7153232000000003,Madrid,28,MADRID,143,GENERAL,N
280587,CLÍNICA LA MILAGROSA,40.437000700000006,-3.696133,Madrid,28,MADRID,171,QUIRÚRGICO,N
280604,HOSPITAL UNIVERSITARIO LA ZARZUELA,40.4629028,-3.7842342,Madrid,28,MADRID,116,GENERAL,N
280626,HOSPITAL UNIVERSITARIO HM NUEVO BELEN,40.455082899999994,-3.6575943,Madrid,28,MADRID,60,MATERNAL,N
280647,SANATORIO NEUROPSIQUIÁTRICO DOCTOR LEÓN,51.09328079223633,10.380292892456056,Madrid,28,MADRID,96,PSIQUIÁTRICO,N
280650,INSTITUTO DE INVESTIGACIONES NEUROPSIQUIÁTRICAS DR. LÓPEZ IBOR,40.4685596,-3.7245288999999997,Madrid,28,MADRID,67,PSIQUIÁTRICO,N
280679,"SANATORIO ESQUERDO, S.A.",40.3820102,-3.7595157999999995,Madrid,28,MADRID,115,PSIQUIÁTRICO,N
280724,HOSPITAL CENTRAL DE LA DEFENSA GOMEZ ULLA,40.38800620000001,-3.745453,Madrid,28,MADRID,475,GENERAL,N
280745,HOSPITAL UNIVERSITARIO PRÍNCIPE DE ASTURIAS,40.5045257891629,-3.35191897610955,Alcalá de Henares,28,MADRID,507,GENERAL,N
280761,HOSPITAL DE LA FUENFRÍA,40.74145126342773,-4.054666996002196,Cercedilla,28,MADRID,192,GERIATRÍA Y/O LARGA ESTANCIA,N
280777,HH. HH. SGDO. C. DE JESÚS. COMPLEJO ASISTENCIAL BENITO MENNI,40.156180299999995,-3.6194481,Ciempozuelos,28,MADRID,318,PSIQUIÁTRICO,N
280783,CENTRO SAN JUAN DE DIOS,40.1602725,-3.6130953000000003,Ciempozuelos,28,MADRID,339,PSIQUIÁTRICO,N
280796,HOSPITAL MONOGRÁFICO ASEPEYO DE TRAUMAT. CIRUGÍA Y REHABILITACIÓN,40.436618,-3.5314906,Coslada,28,MADRID,133,TRAUMATOLOGÍA Y/O REHABILITACIÓN,N
280800,HOSPITAL GUADARRAMA,40.66949520000001,-4.0859769,Guadarrama,28,MADRID,144,GERIATRÍA Y/O LARGA ESTANCIA,N
280838,HOSPITAL UNIVERSITARIO SEVERO OCHOA,40.32642364501953,-3.7589879035949703,Leganés,28,MADRID,386,GENERAL,N
280843,INSTITUTO PSIQUIÁTRICO SERVICIOS DE SALUD MENTAL JOSÉ GERMAIN-1 LUNA,40.327348,-3.767614,Leganés,28,MADRID,0,PSIQUIÁTRICO,N
280856,FREMAP HOSPITAL Y CENTRO DE REHABILITACIÓN DE MAJADAHONDA,40.4495071,-3.8538365,Majadahonda,28,MADRID,116,TRAUMATOLOGÍA Y/O REHABILITACIÓN,N
280894,HOSPITAL UNIVERSITARIO DE MÓSTOLES,40.32276916503906,-3.8657410144805913,Móstoles,28,MADRID,332,GENERAL,N
280920,HOSPITAL EL ESCORIAL,40.5973047,-4.1347992,San Lorenzo de El Escorial,28,MADRID,91,GENERAL,N
280936,HOSPITAL VIRGEN DE LA POVEDA,42.418621200000004,-5.813626999999999,Villa del Prado,28,MADRID,202,GERIATRÍA Y/O LARGA ESTANCIA,N
280954,HOSPITAL DE MADRID,40.4313399,-3.7067887,Madrid,28,MADRID,99,QUIRÚRGICO,N
280989,HOSPITAL UNIVERSITARIO DE GETAFE,51.09328079223633,10.380292892456056,Getafe,28,MADRID,510,GENERAL,N
281034,CLÍNICA ISADORA,40.4571755,-3.7164082,Madrid,28,MADRID,19,MÉDICO-QUIRÚRGICO,N
281049,HOSPITAL UNIVERSITARIO MONCLOA,40.433128100000005,-3.7338946,Madrid,28,MADRID,235,GENERAL,N
281071,HOSPITAL UNIVERSITARIO FUNDACIÓN ALCORCÓN,40.349865,-3.834867,Alcorcón,28,MADRID,400,GENERAL,N
281087,CLINICA CEMTRO,40.493579100000005,-3.7168029000000002,Madrid,28,MADRID,94,MÉDICO-QUIRÚRGICO,N
281090,HOSPITAL UNIVERSITARIO HM  MONTEPRÍNCIPE,40.414390999999995,-3.8444112,Boadilla del Monte,28,MADRID,170,GENERAL,N
281113,CENTRO ONCOLÓGICO MD ANDERSON INTERNATIONAL ESPAÑA,40.470610799999996,-3.6665947999999995,Madrid,28,MADRID,99,ONCOLÓGICO,N
281124,HOSPITAL QUIRONSALUD SUR,40.3430012,-3.8486589,Alcorcón,28,MADRID,81,MÉDICO-QUIRÚRGICO,N
281146,HOSPITAL UNIVERSITARIO DE FUENLABRADA,40.285692600000004,-3.8152462,Fuenlabrada,28,MADRID,406,GENERAL,N
281157,HOSPITAL UNIVERSITARIO HM TORRELODONES,40.570524548878105,-3.9254925067884,Torrelodones,28,MADRID,86,GENERAL,N
281168,COMPLEJO UNIVERSITARIO LA PAZ,40.4802314,-3.6863681000000006,Madrid,28,MADRID,1268,GENERAL,N
281179,HOSPITAL LA MORALEJA,40.492238,-3.6625196000000004,Madrid,28,MADRID,126,GENERAL,N
281180,HOSPITAL LOS MADROÑOS,40.40553665161133,-3.997735977172852,Brunete,28,MADRID,53,GENERAL,N
281203,HOSPITAL QUIRÓNSALUD MADRID,40.4027904,-3.7850365,Pozuelo de Alarcón,28,MADRID,239,GENERAL,N
281214,HOSPITAL CENTRO DE CUIDADOS LAGUNA,40.4006415,-3.7468394,Madrid,28,MADRID,47,OTROS MONOGRÁFICOS,N
281225,HOSPITAL UNIVERSITARIO MADRID SANCHINARRO,40.48932429999999,-3.6663009,Madrid,28,MADRID,198,GENERAL,N
281236,HOSPITAL UNIVERSITARIO INFANTA ELENA,40.303482200000005,-3.7384746,Valdemoro,28,MADRID,158,GENERAL,N
281247,VITAS NISA PARDO DE ARAVACA.,40.4668613,-3.7834969,Madrid,28,MADRID,98,GENERAL,N
281258,HOSPITAL UNIVERSITARIO INFANTA SOFÍA,40.5517993869105,-3.6188993651584704,San Sebastián de los Reyes,28,MADRID,271,GENERAL,N
281269,HOSPITAL UNIVERSITARIO DEL HENARES,40.4168446559395,-3.53297311592237,Coslada,28,MADRID,243,GENERAL,N
281270,HOSPITAL UNIVERSITARIO INFANTA LEONOR,40.3949675421159,-3.6045349132181297,Madrid,28,MADRID,0,GENERAL,N
281281,HOSPITAL UNIVERSITARIO DEL SURESTE,40.2959305,-3.4470432,Arganda del Rey,28,MADRID,132,GENERAL,N
281292,HOSPITAL UNIVERSITARIO DEL TAJO,40.0563622843749,-3.59797742795352,Aranjuez,28,MADRID,98,GENERAL,N
281304,HOSPITAL UNIVERSITARIO INFANTA CRISTINA,40.2191699,-3.7828888999999997,Parla,28,MADRID,188,GENERAL,N
281315,HOSPITAL UNIVERSITARIO PUERTA DE HIERRO MAJADAHONDA,40.6727674,-4.0905594,Majadahonda,28,MADRID,613,GENERAL,N
281326,CASTA GUADARRAMA,40.67347717285156,-4.090746879577637,Guadarrama,28,MADRID,160,PSIQUIÁTRICO,N
281337,HOSPITAL UNIVERSITARIO DE TORREJÓN,40.4641071649442,-3.43413697071118,Torrejón de Ardoz,28,MADRID,250,GENERAL,N
281348,HOSPITAL REY JUAN CARLOS,40.32276916503906,-3.8657410144805913,Móstoles,28,MADRID,364,GENERAL,N
281359,HOSPITAL GENERAL DE VILLALBA,40.6716551,-3.9729718999999997,Collado Villalba,28,MADRID,209,GENERAL,N
281360,HM UNIVERSITARIO PUERTA DEL SUR,40.32071556961329,-3.8502099622113697,Móstoles,28,MADRID,182,GENERAL,N
281371,HM VALLES,37.1637757,-3.5902425000000004,Alcalá de Henares,28,MADRID,20,OTRA FINALIDAD,N
281382,HOSPITAL CASAVERDE DE MADRID,51.09328079223633,10.380292892456056,Navalcarnero,28,MADRID,100,REHABILITACIÓN PSICOFÍSICA,N
281393,CLÍNICA UNIVERSIDAD DE NAVARRA,40.4479355,-3.6253667999999997,Madrid,28,MADRID,72,GENERAL,N
281405,COMPLEJO HOSPITALARIO UNIVERSITARIO INFANTA LEONOR,40.3949675421159,-3.6045349132181297,Madrid,28,MADRID,361,GENERAL,N
281416,CLÍNICA SAN VICENTE,40.416690826416016,-3.7003459930419917,Madrid,28,MADRID,45,REHABILITACIÓN PSICOFÍSICA,N
281427,INSTITUTO PSIQUIÁTRICO SERVICIOS DE SALUD MENTAL JOSÉ GERMAIN,40.327348,-3.767614,Leganés,28,MADRID,178,PSIQUIÁTRICO,N
281438,INSTITUTO PSIQUIÁTRICO SERVICIOS DE SALUD MENTAL JOSÉ GERMAIN-2 ARAGÓN,40.2921425,-3.7950969,Leganés,28,MADRID,0,PSIQUIÁTRICO,N
290017,HOSPITAL GENERAL DEL H.U.R. DE MÁLAGA,36.7251304000146,-4.457426900063759,Málaga,29,MALAGA,0,GENERAL,N
290022,HOSPITAL VIRGEN DE LA VICTORIA,36.71963119506836,-4.420000076293945,Málaga,29,MALAGA,0,GENERAL,N
290038,HOSPITAL CIVIL,36.7266882803806,-4.4302907688393605,Málaga,29,MALAGA,0,GENERAL,N
290069,CENTRO ASISTENCIAL SAN JUAN DE DIOS,36.7583697,-4.4255081,Málaga,29,MALAGA,351,PSIQUIÁTRICO,N
290075,CENTRO ASISTENCIAL HNAS. HOSP. DEL SAGRADO CORAZÓN DE JESÚS,36.73338820000001,-4.4219057,Málaga,29,MALAGA,321,PSIQUIÁTRICO,N
290081,HOSPITAL VITHAS PARQUE SAN ANTONIO,36.7238244,-4.3947080000000005,Málaga,29,MALAGA,100,GENERAL,N
290094,HOSPITAL EL ÁNGEL,36.715046799999996,-4.4529142,Málaga,29,MALAGA,138,GENERAL,N
290108,HOSPITAL DOCTOR GÁLVEZ,36.7208065,-4.4191621,Málaga,29,MALAGA,62,GENERAL,N
290115,CLÍNICA DE LA ENCARNACIÓN,36.7227249,-4.4538629,Málaga,29,MALAGA,105,GENERAL,N
290136,HOSPITAL PSIQUIÁTRICO SAN FRANCISCO DE ASÍS,36.72867720000001,-4.367932700000001,Málaga,29,MALAGA,150,PSIQUIÁTRICO,N
290141,CLÍNICA NUESTRA SRA. DEL PILAR,36.721669399999996,-4.4039807,Málaga,29,MALAGA,21,GENERAL,N
290154,HOSPITAL DE ANTEQUERA,37.0318999000113,-4.53033539998592,Antequera,29,MALAGA,159,GENERAL,N
290173,HOSPITAL QUIRONSALUD MARBELLA,36.5089976,-4.8743614,Marbella,29,MALAGA,75,GENERAL,N
290206,HOSPITAL DE LA AXARQUÍA,36.77864456176758,-4.100675106048584,Vélez-Málaga,29,MALAGA,197,GENERAL,N
290213,HOSPITAL MARÍTIMO DE TORREMOLINOS,36.63977403560825,-4.491654910461294,Torremolinos,29,MALAGA,0,GENERAL,N
290228,CLÍNICA SANTA ELENA,36.62180709838867,-4.500256061553955,Torremolinos,29,MALAGA,90,GENERAL,N
290234,HOSPITAL UNIVERSITARIO REGIONAL DE MÁLAGA,36.7251304000146,-4.457426900063759,Málaga,29,MALAGA,1049,GENERAL,N
290252,HOSPITAL UNIVERSITARIO VIRGEN DE LA VICTORIA,36.71963119506836,-4.420000076293945,Málaga,29,MALAGA,657,GENERAL,N
290265,HOSPITAL MATERNO-INFANTIL DEL H.U.R. DE MÁLAGA,36.729703550142105,-4.43391944976171,Málaga,29,MALAGA,0,MATERNO-INFANTIL,N
290287,HOSPITAL COSTA DEL SOL,36.50993728637695,-4.886353969573975,Marbella,29,MALAGA,408,GENERAL,N
290290,HOSPITAL  F.A.C. DOCTOR PASCUAL,36.728924600000006,-4.4119693,Málaga,29,MALAGA,201,GENERAL,N
290348,CLÍNICA EL SERANIL,36.7143623000047,-4.34301054998776,Vélez-Málaga,29,MALAGA,60,PSIQUIÁTRICO,N
290359,HC MARBELLA INTERNATIONAL HOSPITAL,36.49872589111328,-4.963339805603027,Marbella,29,MALAGA,12,GENERAL,N
290360,HOSPITAL HUMANLINE BANÚS,36.508061856416,-4.8569076345464,Marbella,29,MALAGA,15,QUIRÚRGICO,S
290371,CLÍNICA RINCÓN,36.71293542386747,-4.2671210090032545,Rincón de la Victoria,29,MALAGA,7,OTROS MONOGRÁFICOS,N
290382,HOSPITEN ESTEPONA,36.4143431000147,-5.18072535004814,Estepona,29,MALAGA,74,GENERAL,N
290393,FUNDACIÓN CUDECA. CENTRO DE CUIDADOS PALIATIVOS,36.60303497314453,-4.542122840881348,Benalmádena,29,MALAGA,15,OTROS MONOGRÁFICOS,N
290405,XANIT HOSPITAL INTERNACIONAL,36.60303497314453,-4.542122840881348,Benalmádena,29,MALAGA,125,GENERAL,N
290416,COMUNIDAD TERAPÉUTICA SAN ANTONIO,36.7276426,-4.3601673,Málaga,29,MALAGA,35,PSIQUIÁTRICO,N
290427,HOSPITAL DE ALTA RESOLUCIÓN DE BENALMÁDENA,36.6008662500047,-4.56640600002149,Benalmádena,29,MALAGA,46,GENERAL,N
290449,HOSPITAL QUIRONSALUD MÁLAGA,-30.881290000000003,-64.53827,Málaga,29,MALAGA,132,GENERAL,N
290450,CENYT HOSPITAL,36.4280222,-5.1388196,Estepona,29,MALAGA,10,GENERAL,N
290461,CLÍNICA OCHOA,36.50993728637695,-4.886353969573975,Marbella,29,MALAGA,12,GENERAL,N
290472,CENTRO DE REPRODUCCIÓN ASISTIDA DE MARBELLA (CERAM),36.50993728637695,-4.886353969573975,Marbella,29,MALAGA,22,GENERAL,N
290483,CLÍNICA RINCÓN,36.74502944946289,-3.8768310546875,Nerja,29,MALAGA,4,GENERAL,N
290494,HELICÓPTEROS SANITARIOS HOSPITAL,36.4957155,-4.949274,Marbella,29,MALAGA,10,GENERAL,N
290506,HOSPITAL DE LA SERRANÍA,36.500260414429064,-5.000573027379619,Ronda,29,MALAGA,150,GENERAL,N
290517,HOSPITAL VALLE DEL GUADALHORCE DE CÁRTAMA,36.72594833374024,-4.547276020050049,Cártama,29,MALAGA,0,GENERAL,N
300011,HOSPITAL CLÍNICO UNIVERSITARIO VIRGEN DE LA ARRIXACA,37.94219970703125,-1.1613999605178833,Murcia,30,MURCIA,920,GENERAL,N
300026,HOSPITAL GENERAL UNIVERSITARIO REINA SOFÍA,37.982043700000006,-1.1212038,Murcia,30,MURCIA,339,GENERAL,N
300032,HOSPITAL PSIQUIÁTRICO ROMAN ALBERCA,37.9417914,-1.1653613999999999,Murcia,30,MURCIA,96,PSIQUIÁTRICO,N
300050,HOSPITAL QUIRÓNSALUD MURCIA,37.97797979999999,-1.1188135000000001,Murcia,30,MURCIA,131,GENERAL,N
300079,HOSPITAL LA VEGA,37.992621050257,-1.13311230018458,Murcia,30,MURCIA,123,GENERAL,N
300085,HOSPITAL MESA DEL CASTILLO,37.9702992500912,-1.1219545001014801,Murcia,30,MURCIA,76,MÉDICO-QUIRÚRGICO,N
300098,SANATORIO DOCTOR MUÑOZ S.L.,37.73792358941312,-0.9526996570787484,Murcia,30,MURCIA,50,PSIQUIÁTRICO,N
300119,"CLÍNICA MÉDICO-QUIRÚRGICA SAN JOSÉ, S.A.",37.97364340001771,-1.22647745,Alcantarilla,30,MURCIA,139,MÉDICO-QUIRÚRGICO,N
300124,HOSPITAL COMARCAL DEL NOROESTE,38.10409355521519,-1.8679330177429043,Caravaca de la Cruz,30,MURCIA,103,GENERAL,N
300130,CLÍNICA DOCTOR BERNAL S.L.,38.105889700000006,-1.86698669999412,Caravaca de la Cruz,30,MURCIA,39,GERIATRÍA Y/O LARGA ESTANCIA,N
300145,HOSPITAL SANTA MARÍA DEL ROSELL,10.39999771118164,-75.5,Cartagena,30,MURCIA,0,GENERAL,N
300161,SANTO Y REAL HOSPITAL DE CARIDAD,37.625553919005206,-0.9940456033174581,Cartagena,30,MURCIA,154,GERIATRÍA Y/O LARGA ESTANCIA,N
300177,HOSPITAL NUESTRA SEÑORA DEL PERPETUO SOCORRO,10.39999771118164,-75.5,Cartagena,30,MURCIA,214,MÉDICO-QUIRÚRGICO,N
300196,FUNDACION HOSPITAL REAL PIEDAD,38.092689514160156,-1.7985219955444336,Cehegín,30,MURCIA,40,GERIATRÍA Y/O LARGA ESTANCIA,N
300217,HOSPITAL VIRGEN DEL ALCÁZAR DE LORCA,37.6697040000028,-1.69532725001654,Lorca,30,MURCIA,175,GERIATRÍA Y/O LARGA ESTANCIA,N
300222,HOSPITAL GENERAL UNIVERSITARIO LOS ARCOS DEL MAR MENOR,37.8087158203125,-0.8579099774360657,San Javier,30,MURCIA,255,GENERAL,N
300243,HOSPITAL VIRGEN DEL CASTILLO,38.61526870727539,-1.1179449558258057,Yecla,30,MURCIA,96,GENERAL,N
300256,HOSPITAL RAFAEL MÉNDEZ,37.7111518784081,-1.59416540187727,Lorca,30,MURCIA,287,GENERAL,N
300269,HOSPITAL GENERAL UNIVERSITARIO J.M. MORALES MESEGUER,37.99682215,-1.13109675000215,Murcia,30,MURCIA,394,GENERAL,N
300275,HOSPITAL IBERMUTUAMUR-PATOLOGÍA LABORAL,38.01033401489258,-1.1536270380020142,Murcia,30,MURCIA,26,TRAUMATOLOGÍA Y/O REHABILITACIÓN,N
300281,HOSPITAL DE LA VEGA LORENZO GUIRAO,38.23905944824219,-1.4187740087509155,Cieza,30,MURCIA,124,GENERAL,N
300294,HOSPITAL DE MOLINA,38.05092239379883,-1.2109919786453247,Molina de Segura,30,MURCIA,83,MÉDICO-QUIRÚRGICO,N
300317,CLÍNICA SAN FELIPE DEL MEDITERRÁNEO,37.94219970703125,-1.1613999605178833,Murcia,30,MURCIA,62,PSIQUIÁTRICO,N
300339,HOSPITAL DE CUIDADOS MEDIOS VILLADEMAR,37.82576500137005,-0.7939302203163524,San Pedro del Pinatar,30,MURCIA,99,GERIATRÍA Y/O LARGA ESTANCIA,N
300340,RESIDENCIA LOS ALMENDROS,37.62258911132813,-1.1198290586471558,Cartagena,30,MURCIA,60,GERIATRÍA Y/O LARGA ESTANCIA,N
300351,COMPLEJO HOSPITALARIO UNIVERSITARIO DE CARTAGENA,10.39999771118164,-75.5,Cartagena,30,MURCIA,691,GENERAL,N
300362,HOSPITAL GENERAL UNIVERSITARIO SANTA LUCIA,40.422813415527344,-3.6182820796966553,Cartagena,30,MURCIA,0,GENERAL,N
300373,HOSPITAL PERPETUO SOCORRO ALAMEDA,37.608112899999995,-0.9919382,Cartagena,30,MURCIA,93,GERIATRÍA Y/O LARGA ESTANCIA,N
300384,HOSPITAL C.M.V. CARIDAD CARTAGENA,10.42192,-75.55138000000001,Cartagena,30,MURCIA,40,MÉDICO-QUIRÚRGICO,N
310039,CENTRO SAN FRANCISCO JAVIER,42.8324964,-1.6251631000000002,Pamplona/Iruña,31,NAVARRA,28,PSIQUIÁTRICO,N
310044,HOSPITAL SAN JUAN DE DIOS,42.81618889999999,-1.6237694999999999,Pamplona/Iruña,31,NAVARRA,190,GENERAL,N
310057,CLINICA PSIQUIATRICA PADRE MENNI,42.825193,-1.6545578999999997,Pamplona/Iruña,31,NAVARRA,226,PSIQUIÁTRICO,N
310060,CLINICA UNIVERSIDAD DE NAVARRA,42.80521463596035,-1.6629818347063894,Pamplona/Iruña,31,NAVARRA,241,GENERAL,N
310076,CLINICA SAN MIGUEL,42.819520399999995,-1.6211818,Pamplona/Iruña,31,NAVARRA,72,GENERAL,N
310095,CLÍNICA SAN FERMÍN,42.809551600492505,-1.64262674994234,Pamplona/Iruña,31,NAVARRA,5,GENERAL,N
310109,CENTRO HOSPITALARIO BENITO MENNI,43.1473992,-1.5266174,Baztan,31,NAVARRA,148,PSIQUIÁTRICO,N
310121,HOSPITAL GARCÍA ORCOYEN,42.68253970000001,-2.0403908,Estella-Lizarra,31,NAVARRA,93,GENERAL,N
310137,HOSPITAL REINA SOFÍA,42.0292034,-1.5839423000000001,Tudela,31,NAVARRA,190,GENERAL,N
310142,CLÍNICA PSICOGERIÁTRICA JOSEFINA ARREGUI,42.89527893066406,-2.1688899993896484,Altsasu/Alsasua,31,NAVARRA,21,PSIQUIÁTRICO,N
310150,COMPLEJO HOSPITALARIO DE NAVARRA,42.8050525,-1.6670546000000002,Pamplona/Iruña,31,NAVARRA,1086,GENERAL,N
320013,COMPLEXO HOSPITALARIO UNIVERSITARIO DE OURENSE,42.33639144897461,-7.863329887390138,Ourense,32,OURENSE,869,GENERAL,N
320028,HOSPITAL UNIVERSITARIO CRISTAL,42.33639144897461,-7.863329887390138,Ourense,32,OURENSE,0,GENERAL,N
320034,HOSPITAL SANTO CRISTO DE PIÑOR (PSIQUIATRICO),42.3242289501672,-7.88727320004537,Barbadás,32,OURENSE,0,GENERAL,N
320052,HOSPITAL SANTA MARIA NAI,42.33639144897461,-7.863329887390138,Ourense,32,OURENSE,0,GENERAL,N
320087,CENTRO MEDICO EL CARMEN,42.3426280001606,-7.8645101499290595,Ourense,32,OURENSE,43,GENERAL,N
320126,HOSPITAL DE VALDEORRAS (*),42.41686828821465,-6.99126718400128,"Barco de Valdeorras, O",32,OURENSE,100,GENERAL,N
320150,HOSPITAL DE VERIN,41.94912160724329,-7.432581525290849,Verín,32,OURENSE,80,GENERAL,N
320163,CLINICA SANTA TERESA,42.33639144897461,-7.863329887390138,Ourense,32,OURENSE,49,GENERAL,N
330045,HOSPITAL MONTE NARANCO,28.67028999328613,-81.20848083496094,Oviedo,33,ASTURIAS,194,GENERAL,N
330061,CENTRO MÉDICO DE ASTURIAS,28.67028999328613,-81.20848083496094,Oviedo,33,ASTURIAS,105,GENERAL,N
330077,CLÍNICA ASTURIAS,43.36761,-5.855954799999999,Oviedo,33,ASTURIAS,46,GENERAL,N
330096,CLÍNICA SAN RAFAEL,43.3805243,-5.8292446,Oviedo,33,ASTURIAS,36,PSIQUIÁTRICO,N
330100,"HOSPITAL  UNIVERSITARIO ""SAN AGUSTÍN""",43.551977436941,-5.93266145074328,Avilés,33,ASTURIAS,436,GENERAL,N
330117,FUNDACIÓN HOSPITAL DE AVILÉS,43.5548147450937,-5.926739949653354,Avilés,33,ASTURIAS,90,MÉDICO-QUIRÚRGICO,N
330138,HOSPITAL CARMEN Y SEVERO OCHOA,43.177831899999994,-6.5535917,Cangas del Narcea,33,ASTURIAS,103,GENERAL,N
330143,HOSPITAL COMARCAL DE JARRIO,43.539058685302734,-6.743907928466798,Coaña,33,ASTURIAS,105,GENERAL,N
330156,HOSPITAL DE CABUEÑES,43.523568700000006,-5.6064987,Gijón,33,ASTURIAS,457,GENERAL,N
330169,HOSPITAL DE LA CRUZ ROJA,43.5383857,-5.6549024,Gijón,33,ASTURIAS,120,MÉDICO-QUIRÚRGICO,N
330175,SANATORIO NUESTRA SEÑORA DE COVADONGA,43.5302469,-5.6488879999999995,Gijón,33,ASTURIAS,24,MÉDICO-QUIRÚRGICO,N
330194,FUNDACIÓN HOSPITAL DE JOVE,43.54716312883273,-5.699130734569748,Gijón,33,ASTURIAS,233,GENERAL,N
330208,"HOSPITAL BEGOÑA DE GIJÓN, S.L.",43.535239399999995,-5.647806299999999,Gijón,33,ASTURIAS,41,GENERAL,N
330241,HOSPITAL VALLE DEL NALÓN,43.323710500103104,-5.72197935040292,Langreo,33,ASTURIAS,223,GENERAL,N
330254,FUNDACIÓN SANATORIO ADARO,43.29176147444161,-5.6752823902254805,Langreo,33,ASTURIAS,138,GERIATRÍA Y/O LARGA ESTANCIA,N
330267,HOSPITAL V. ÁLVAREZ BUYLLA,43.25486768203929,-5.777105266635168,Mieres,33,ASTURIAS,176,GENERAL,N
330292,HOSPITAL UNIVERSITARIO CENTRAL DE ASTURIAS,43.387840270996094,-5.826907157897949,Oviedo,33,ASTURIAS,991,GENERAL,N
330306,HOSPITAL DEL ORIENTE DE ASTURIAS FRANCISCO GRANDE COVIÁN,43.38836669921875,-5.186789035797119,Parres,33,ASTURIAS,90,GENERAL,N
330313,HOSPITAL DE LUARCA -ASISTENCIA MÉDICA OCCIDENTALSL,43.54232406616211,-6.5360660552978525,Valdés,33,ASTURIAS,19,OTROS MONOGRÁFICOS,N
330321,"INSTITUTO SALUD MENTAL PÉREZ-ESPINOSA ORIA, S.L.",38.439697265625,-122.71564483642578,Llanera,33,ASTURIAS,42,PSIQUIÁTRICO,N
330332,CLÍNICA PSIQUIÁTRICA SOMIÓ,43.545757200000004,-5.609765599999999,Gijón,33,ASTURIAS,40,PSIQUIÁTRICO,N
330343,CLÍNICA CIRUGÍA PLÁSTICA Y ESTÉTICA FERNÁNDEZ Y FERNÁNDEZ COSSÍO,43.3503127,-5.8593773,Oviedo,33,ASTURIAS,3,QUIRÚRGICO,N
330354,HOSPITAL GIJÓN,-38.2426,-57.780480000000004,Gijón,33,ASTURIAS,32,GERIATRÍA Y/O LARGA ESTANCIA,N
330365,CENTRO TERAPÉUTICO VISTA ALEGRE,43.53240318533081,-5.628402119144348,Gijón,33,ASTURIAS,28,PSIQUIÁTRICO,N
330376,INSTITUTO OFTALMOLÓGICO FERNÁNDEZ -VEGA,28.67028999328613,-81.20848083496094,Oviedo,33,ASTURIAS,13,OFTÁLMICO U ORL,N
340014,HOSPITAL RIO CARRIÓN,42.0027590530884,-4.53679083348238,Palencia,34,PALENCIA,0,GENERAL,N
340029,HOSPITAL SAN TELMO,41.9985136914788,-4.52386914713679,Palencia,34,PALENCIA,0,GENERAL,N
340035,HOSPITAL PSIQUIATRICO SAN LUIS,42.01245880126953,-4.531175136566162,Palencia,34,PALENCIA,206,PSIQUIÁTRICO,N
340040,ÁREA PSIQUIÁTRICA DEL CENTRO ASISTENCIAL SAN JUAN DE DIOS,42.0007641,-4.5507731,Palencia,34,PALENCIA,97,PSIQUIÁTRICO,N
340053,HOSPITAL RECOLETAS DE PALENCIA,42.0158636,-4.540160299999999,Palencia,34,PALENCIA,44,GENERAL,N
340063,COMPLEJO ASISTENCIAL UNIVERSITARIO DE PALENCIA,42.0027590530884,-4.53679083348238,Palencia,34,PALENCIA,495,GENERAL,N
350043,HOSPITAL UNIVERSITARIO MATERNO-INFANTIL DE CANARIAS,28.072101943729997,-15.4165842204644,"Palmas de Gran Canaria, Las",35,LAS PALMAS,0,MATERNO-INFANTIL,N
350056,HOSPITAL UNIVERSITARIO INSULAR DE GRAN CANARIA,28.4319030504838,-16.2937816001632,"Palmas de Gran Canaria, Las",35,LAS PALMAS,0,GENERAL,N
350069,UNIDADES CLÍNICAS Y DE REHABILITACIÓN (UCYR),28.101873000145698,-15.4230869500893,"Palmas de Gran Canaria, Las",35,LAS PALMAS,0,PSIQUIÁTRICO,N
350081,SANATORIO DERMATOLÓGICO REGIONAL,28.058012599999998,-15.461109900000002,"Palmas de Gran Canaria, Las",35,LAS PALMAS,54,GERIATRÍA Y/O LARGA ESTANCIA,N
350115,FUNDACIÓN BENÉFICA CANARIA CASA ASILO SAN JOSÉ,28.1430838,-15.432565599999998,"Palmas de Gran Canaria, Las",35,LAS PALMAS,66,GENERAL,N
350120,VITHAS HOSPITAL SANTA CATALINA,28.126803600000002,-15.4297876,"Palmas de Gran Canaria, Las",35,LAS PALMAS,152,GENERAL,N
350154,"HOSPITAL POLICLÍNICO LA PALOMA, S.A.",28.1264928,-15.4322432,"Palmas de Gran Canaria, Las",35,LAS PALMAS,108,GENERAL,N
350167,"INSTITUTO POLICLÍNICO CAJAL, S.L.",28.110022600000004,-15.421425,"Palmas de Gran Canaria, Las",35,LAS PALMAS,136,GENERAL,N
350173,HOSPITAL SAN ROQUE LAS PALMAS DE GRAN CANARIA,28.0990195,-15.413384200000001,"Palmas de Gran Canaria, Las",35,LAS PALMAS,162,GENERAL,N
350192,CLÍNICA BANDAMA,28.067389000000002,-15.4569017,"Palmas de Gran Canaria, Las",35,LAS PALMAS,64,PSIQUIÁTRICO,N
350206,HOSPITAL NUESTRA SEÑORA DEL PERPETUO SOCORRO,28.137408,-15.430199599999998,"Palmas de Gran Canaria, Las",35,LAS PALMAS,187,GENERAL,N
350228,HOSPITAL DOCTOR JOSÉ MOLINA OROSA,29.0034658,-13.609447400000002,Arrecife,35,LAS PALMAS,292,GENERAL,N
350249,HOSPITAL INSULAR DE LANZAROTE,28.95950698852539,-13.547600746154785,Arrecife,35,LAS PALMAS,80,GERIATRÍA Y/O LARGA ESTANCIA,N
350252,HOSPITAL GENERAL DE FUERTEVENTURA,28.4955146681245,-13.8647369661924,Puerto del Rosario,35,LAS PALMAS,131,GENERAL,N
350265,"QUINTA MÉDICA DE REPOSO, S.A.",28.029157666452452,-15.499776912405991,Santa Brígida,35,LAS PALMAS,78,PSIQUIÁTRICO,N
350271,HOSPITAL DE SAN ROQUE GUÍA,28.129371751149307,-15.625778230403386,Santa María de Guía de Gran Canaria,35,LAS PALMAS,0,GERIATRÍA Y/O LARGA ESTANCIA,N
350287,HOSPITAL CIUDAD DE TELDE,28.01481056213379,-15.384244918823242,Telde,35,LAS PALMAS,219,GERIATRÍA Y/O LARGA ESTANCIA,N
350290,COMPLEJO HOSPITALARIO UNIVERSITARIO INSULAR-MATERNO INFANTIL,28.072101943729997,-15.4165842204644,"Palmas de Gran Canaria, Las",35,LAS PALMAS,916,GENERAL,N
350304,HOSPITAL CLÍNICA ROCA (ROCA GESTIÓN HOSPITALARIA),27.767711760805145,-15.549743481802746,San Bartolomé de Tirajana,35,LAS PALMAS,81,GENERAL,N
350311,HOSPITAL UNIVERSITARIO  DE GRAN CANARIA DR. NEGRÍN,28.1201161429062,-15.4430894927331,"Palmas de Gran Canaria, Las",35,LAS PALMAS,0,GENERAL,N
350326,HOSPITEN LANZAROTE (CLÍNICAS DEL SUR S.L.U.),27.78080177307129,-15.602523803710938,Tías,35,LAS PALMAS,61,GENERAL,N
350332,COMPLEJO HOSPITALARIO UNIVERSITARIO DE GRAN CANARIA DR. NEGRÍN,28.1201161429062,-15.4430894927331,"Palmas de Gran Canaria, Las",35,LAS PALMAS,828,GENERAL,N
350367,HOSPITAL SAN ROQUE MASPALOMAS,27.749932799999996,-15.607717300000001,San Bartolomé de Tirajana,35,LAS PALMAS,147,GENERAL,N
350389,CLÍNICA PARQUE FUERTEVENTURA,28.49650382995605,-13.86220645904541,Puerto del Rosario,35,LAS PALMAS,12,MÉDICO-QUIRÚRGICO,N
350390,CLINICA JORGANI,28.29052352905273,-16.55661964416504,Teguise,35,LAS PALMAS,11,GENERAL,N
360010,HOSPITAL UNIVERSITARIO MONTECELO,42.43357467651367,-8.648114204406737,Pontevedra,36,PONTEVEDRA,0,GENERAL,N
360025,HOSPITAL PROVINCIAL DE PONTEVEDRA,42.43357467651367,-8.648114204406737,Pontevedra,36,PONTEVEDRA,0,GENERAL,N
360031,HESTIA SANTA MARIA,28.441685999999997,-16.2991477,Pontevedra,36,PONTEVEDRA,70,GERIATRÍA Y/O LARGA ESTANCIA,N
360059,HOSPITAL QUIRONSALUD MIGUEL DOMINGUEZ,42.4292935,-8.6422448,Pontevedra,36,PONTEVEDRA,127,GENERAL,N
360101,INSTITUTO DE NEURO-REHABILITACION QUIRONSALUD PONTEVEDRA,42.43255199026871,-8.661925266555519,Poio,36,PONTEVEDRA,30,OTROS MONOGRÁFICOS,N
360118,HOSPITAL MEIXOEIRO,42.219826303866604,-8.678362287288598,Vigo,36,PONTEVEDRA,0,GENERAL,N
360157,HOSPITAL NICOLAS PEÑA,42.22535524174185,-8.729569413498973,Vigo,36,PONTEVEDRA,0,GENERAL,N
360160,"FREMAP, HOSPITAL DE VIGO",42.2286763,-8.7276492,Vigo,36,PONTEVEDRA,17,TRAUMATOLOGÍA Y/O REHABILITACIÓN,N
360182,HOSPITAL POVISA,42.2234565,-8.7275904,Vigo,36,PONTEVEDRA,573,GENERAL,N
360195,HOSPITAL HM VIGO,42.2295147,-8.722089800000001,Vigo,36,PONTEVEDRA,12,GENERAL,N
360209,VITHAS HOSPITAL NOSA SEÑORA DE FATIMA,42.23464459552557,-8.708935222619193,Vigo,36,PONTEVEDRA,200,GENERAL,N
360216,CONCHEIRO CENTRO MEDICO QUIRURGICO,42.228306700000005,-8.7190269,Vigo,36,PONTEVEDRA,40,QUIRÚRGICO,N
360255,CENTRO MEDICO PINTADO,45.54394,11.41122,Vigo,36,PONTEVEDRA,12,MATERNO-INFANTIL,N
360268,SANATORIO PSIQUIATRICO SAN JOSE,42.223947755582046,-8.737933248378313,Vigo,36,PONTEVEDRA,48,PSIQUIÁTRICO,N
360274,CLINICA RESIDENCIA EL PINAR,42.2207396,-8.681716900000001,Vigo,36,PONTEVEDRA,84,PSIQUIÁTRICO,N
360340,COMPLEXO HOSPITALARIO UNIVERSITARIO DE PONTEVEDRA,42.43357467651367,-8.648114204406737,Pontevedra,36,PONTEVEDRA,605,GENERAL,N
360353,HOSPITAL DO SALNES (*),42.5745191010518,-8.72612616778147,Vilagarcía de Arousa,36,PONTEVEDRA,122,GENERAL,N
360368,COMPLEXO HOSPITALARIO UNIVERSITARIO DE VIGO,42.196479362991205,-8.71819811879454,Vigo,36,PONTEVEDRA,1273,GENERAL,N
360379,HOSPITAL UNIVERSITARIO ALVARO CUNQUEIRO,42.196479362991205,-8.71819811879454,Vigo,36,PONTEVEDRA,0,GENERAL,N
370016,COMPLEJO ASISTENCIAL UNIVERSITARIO DE SALAMANCA,40.9641127,-5.673001599999999,Salamanca,37,SALAMANCA,914,GENERAL,N
370037,HOSPITAL UNIVERSITARIO DE SALAMANCA,40.9641127,-5.673001599999999,Salamanca,37,SALAMANCA,0,GENERAL,N
370055,HOSPITAL GENERAL DE LA SANTÍSIMA TRINIDAD,40.969072825618795,-5.66779732337415,Salamanca,37,SALAMANCA,106,GENERAL,N
370074,HOSPITAL LOS MONTALVOS,40.9756798263151,-6.09727538386688,Carrascal de Barregas,37,SALAMANCA,0,GENERAL,N
380012,COMPLEJO HOSPITALARIO UNIVERSITARIO NTRA. SRA. DE CANDELARIA,28.447836100000004,-16.2881728,Santa Cruz de Tenerife,38,SANTA CRUZ DE TENERIFE,1066,GENERAL,N
380027,HOSPITAL UNIVERSITARIO NUESTRA SEÑORA DE CANDELARIA,28.447836100000004,-16.2881728,Santa Cruz de Tenerife,38,SANTA CRUZ DE TENERIFE,0,GENERAL,N
380033,HOSPITAL DE OFRA,28.4729450336661,-16.277939214819302,Santa Cruz de Tenerife,38,SANTA CRUZ DE TENERIFE,0,GENERAL,N
380048,UNIDADES CLÍNICAS Y DE REHABILITACIÓN DE SALUD MENTAL,28.4696249,-16.2676989,Santa Cruz de Tenerife,38,SANTA CRUZ DE TENERIFE,0,PSIQUIÁTRICO,N
380051,HOSPITAL FEBLES CAMPOS,28.4612597,-16.260599900000003,Santa Cruz de Tenerife,38,SANTA CRUZ DE TENERIFE,258,GERIATRÍA Y/O LARGA ESTANCIA,N
380064,HOSPITAL SAN JUAN DE DIOS,28.4772282,-16.4140866,Santa Cruz de Tenerife,38,SANTA CRUZ DE TENERIFE,152,GENERAL,N
380086,HOSPITAL QUIRÓN TENERIFE,28.470917,-16.2666009,Santa Cruz de Tenerife,38,SANTA CRUZ DE TENERIFE,187,GENERAL,N
380099,VITHAS HOSPITAL SANTA CRUZ,28.4716584,-16.259007399999998,Santa Cruz de Tenerife,38,SANTA CRUZ DE TENERIFE,61,GENERAL,N
380103,"CLÍNICA PARQUE, S.A.",28.470830775275026,-16.253398289591598,Santa Cruz de Tenerife,38,SANTA CRUZ DE TENERIFE,64,GENERAL,N
380146,HOSPITEN SUR,28.0583626,-16.7253717,Arona,38,SANTA CRUZ DE TENERIFE,242,GENERAL,N
380178,HOSPITAL UNIVERSITARIO DE CANARIAS (H.U.C),28.460827044481398,-16.2955932157462,San Cristóbal de La Laguna,38,SANTA CRUZ DE TENERIFE,0,GENERAL,N
380197,HOSPITAL DE LA SANTÍSIMA TRINIDAD,28.3864188229038,-16.6863036677573,Icod de los Vinos,38,SANTA CRUZ DE TENERIFE,99,GERIATRÍA Y/O LARGA ESTANCIA,N
380201,CLÍNICA VIDA,28.388501350225162,-16.53641582828578,"Orotava, La",38,SANTA CRUZ DE TENERIFE,31,GENERAL,N
380223,HOSPITAL BELLEVUE,28.4073168,-16.544543599999997,Puerto de la Cruz,38,SANTA CRUZ DE TENERIFE,195,GENERAL,N
380244,HOSPITAL NUESTRA SEÑORA DE GUADALUPE,28.1014201223731,-17.1242283106533,San Sebastián de la Gomera,38,SANTA CRUZ DE TENERIFE,40,GENERAL,N
380260,HOSPITAL NUESTRA SEÑORA DE LOS DOLORES,28.6858289,-17.763582999999997,Santa Cruz de la Palma,38,SANTA CRUZ DE TENERIFE,144,GERIATRÍA Y/O LARGA ESTANCIA,N
380276,HOSPITAL INSULAR NTRA. SRA. DE LOS REYES,8.101460456848145,-81.01209259033203,Valverde,38,SANTA CRUZ DE TENERIFE,32,GENERAL,N
380282,HOSPITAL QUIRÓN COSTA ADEJE,28.075806210060396,-16.7270316868908,Adeje,38,SANTA CRUZ DE TENERIFE,62,GENERAL,N
380295,HOSPITAL RAMBLA S.L.,28.474966100000003,-16.2514951,Santa Cruz de Tenerife,38,SANTA CRUZ DE TENERIFE,97,GENERAL,N
380316,HOSPITAL GENERAL DE LA PALMA,28.668939039792104,-17.7921732633692,Breña Alta,38,SANTA CRUZ DE TENERIFE,198,GENERAL,N
380326,COMPLEJO HOSPITALARIO UNIVERSITARIO DE CANARIAS,28.460827044481398,-16.2955932157462,San Cristóbal de La Laguna,38,SANTA CRUZ DE TENERIFE,826,GENERAL,N
380337,HOSPITAL DEL NORTE,28.38103879413264,-16.682384404132016,Icod de los Vinos,38,SANTA CRUZ DE TENERIFE,0,GERIATRÍA Y/O LARGA ESTANCIA,N
380348,HOSPITAL DEL SUR,51.09328079223633,10.380292892456056,Arona,38,SANTA CRUZ DE TENERIFE,0,GENERAL,N
380359,CLÍNICA TARA,28.4774582792554,-16.403642281608697,Tacoronte,38,SANTA CRUZ DE TENERIFE,12,GENERAL,N
390015,HOSPITAL UNIVERSITARIO MARQUÉS DE VALDECILLA,43.45687031034411,-3.8312456396381895,Santander,39,CANTABRIA,923,GENERAL,N
390041,HOSPITAL RAMÓN NEGRETE,43.46141052246094,-3.8093030452728267,Santander,39,CANTABRIA,30,TRAUMATOLOGÍA Y/O REHABILITACIÓN,N
390054,HOSPITAL SANTA CLOTILDE - ORDEN HOSPITALARIA SAN JUAN DE DIOS.,43.46765077700317,-3.8015936702514286,Santander,39,CANTABRIA,127,GERIATRÍA Y/O LARGA ESTANCIA,N
390067,CENTRO HOSPITALARIO PADRE MENNI,51.09328079223633,10.380292892456056,Santander,39,CANTABRIA,403,PSIQUIÁTRICO,N
390134,HOSPITAL COMARCAL DE LAREDO,27.50712966918945,-99.50749206542969,Laredo,39,CANTABRIA,131,GENERAL,N
390149,HOSPITAL SIERRALLANA,43.35145568847656,-4.0470170974731445,Torrelavega,39,CANTABRIA,301,GENERAL,N
390152,"CLÍNICA MOMPÍA, S.A.U.",43.4339037500102,-3.9182704999595694,Santa Cruz de Bezana,39,CANTABRIA,105,GENERAL,N
400019,COMPLEJO ASISTENCIAL DE SEGOVIA,40.94942855834961,-4.119208812713623,Segovia,40,SEGOVIA,375,GENERAL,N
400030,HOSPITAL GENERAL DE SEGOVIA,40.94942855834961,-4.119208812713623,Segovia,40,SEGOVIA,0,GENERAL,N
400045,HOSPITAL RECOLETAS SEGOVIA NTRA. SRA. DE LA MISERICORDIA,40.9527153036981,-4.12139828842369,Segovia,40,SEGOVIA,48,GENERAL,N
400058,UNIDAD DE REHABILITACIÓN PSIQUIÁTRICA NTRA. SRA. DE LA FUENCISLA,40.932567463931214,-4.0747972566522845,Palazuelos de Eresma,40,SEGOVIA,56,PSIQUIÁTRICO,N
410016,HOSPITAL GENERAL DEL H.U. VIRGEN DEL ROCÍO,37.3656686456323,-5.98410602614636,Sevilla,41,SEVILLA,0,GENERAL,N
410021,HOSPITAL VIRGEN DE VALME,37.38264083862305,-5.996294975280763,Sevilla,41,SEVILLA,0,GENERAL,N
410042,HOSPITAL VIRGEN MACARENA,37.4062828,-5.9872429,Sevilla,41,SEVILLA,0,GENERAL,N
410055,HOSPITAL SAN LÁZARO,37.414322600000006,-5.9831430999999995,Sevilla,41,SEVILLA,0,GENERAL,N
410074,HOSPITAL VICTORIA EUGENIA DE LA CRUZ ROJA ESPAÑOLA,37.4006155,-5.9823899,Sevilla,41,SEVILLA,39,GENERAL,N
410080,HOSPITAL SAN JUAN DE DIOS DE SEVILLA,37.3816537,-5.968977,Sevilla,41,SEVILLA,47,GENERAL,N
410093,HOSPITAL DUQUES DEL INFANTADO,37.38264083862305,-5.996294975280763,Sevilla,41,SEVILLA,0,GENERAL,N
410107,CLÍNICA SANTA ISABEL,37.387029999999996,-5.9755469,Sevilla,41,SEVILLA,96,GENERAL,N
410114,HOSPITAL QUIRONSALUD SAGRADO CORAZÓN,37.3593356,-5.9795136,Sevilla,41,SEVILLA,147,GENERAL,N
410129,HOSPITAL FÁTIMA,37.1808155,-5.787552400000001,Sevilla,41,SEVILLA,73,GENERAL,N
410135,HOSPITAL QUIRONSALUD INFANTA LUISA,37.3814696,-6.0082983,Sevilla,41,SEVILLA,139,GENERAL,N
410191,CLÍNICA NUESTRA SEÑORA DE ARÁNZAZU,37.3958026,-5.9956392,Sevilla,41,SEVILLA,10,QUIRÚRGICO,N
410212,RESIDENCIA DE SALUD MENTAL NUESTRA SEÑORA DEL CARMEN,37.3781464879179,-6.070154573579059,Bormujos,41,SEVILLA,54,PSIQUIÁTRICO,N
410227,HOSPITAL EL TOMILLAR,37.3210999990463,-5.874181449833831,Alcalá de Guadaíra,41,SEVILLA,0,GENERAL,N
410233,HOSPITAL SAN AGUSTÍN,37.28317642211914,-5.922242164611816,Dos Hermanas,41,SEVILLA,93,GENERAL,N
410248,HOSPITAL DE ALTA RESOLUCIÓN DE MORÓN DE LA FRONTERA,37.11700455001029,-5.454543299991619,Morón de la Frontera,41,SEVILLA,12,GENERAL,N
410251,HOSPITAL LA MERCED,37.233487100000005,-5.096051999999999,Osuna,41,SEVILLA,225,GENERAL,N
410286,HOSPITAL UNIVERSITARIO VIRGEN DEL ROCÍO,37.3656686456323,-5.98410602614636,Sevilla,41,SEVILLA,1350,GENERAL,N
410299,HOSPITAL UNIVERSITARIO VIRGEN MACARENA,37.4062828,-5.9872429,Sevilla,41,SEVILLA,960,GENERAL,N
410303,HOSPITAL UNIVERSITARIO VIRGEN DE VALME,37.3245263657975,-5.9686110885957095,Sevilla,41,SEVILLA,617,GENERAL,N
410325,"FREMAP, HOSPITAL Y CENTRO DE REHABILITACIÓN DE SEVILLA",37.38264083862305,-5.996294975280763,Sevilla,41,SEVILLA,102,TRAUMATOLOGÍA Y/O REHABILITACIÓN,N
410346,HOSPITAL PSIQUIÁTRICO PENITENCIARIO,37.3826785,-5.895593900000001,Sevilla,41,SEVILLA,26,PSIQUIÁTRICO,N
410353,HOSPITAL SAN JUAN DE DIOS DEL ALJARAFE,37.367926100024796,-6.082671299840619,Bormujos,41,SEVILLA,200,GENERAL,N
410375,HOSPITAL NISA SEVILLA-ALJARAFE,37.38645935058594,-6.051836967468263,Castilleja de la Cuesta,41,SEVILLA,148,GENERAL,N
410386,HOSPITAL DE ALTA RESOLUCIÓN DE UTRERA,37.181419372558594,-5.781507015228272,Utrera,41,SEVILLA,14,GENERAL,N
410397,HOSPITAL DE ALTA RESOLUCIÓN SIERRA NORTE,43.37276458740234,-2.814249992370605,Constantina,41,SEVILLA,8,GENERAL,N
410409,HOSPITAL VIAMED SANTA ÁNGELA DE LA CRUZ,37.3274451,-5.9664234,Sevilla,41,SEVILLA,105,GENERAL,N
410419,HOSPITAL DE ALTA RESOLUCIÓN DE ÉCIJA,37.5336240219133,-5.09070551386657,Écija,41,SEVILLA,38,GENERAL,N
410432,CLÍNICA DE SALUD MENTAL MIGUEL DE MAÑARA,37.34345626831055,-5.933680057525635,Dos Hermanas,41,SEVILLA,18,PSIQUIÁTRICO,N
410443,HOSPITAL DE REHABILITACIÓN Y TRAUMATOLOGÍA VIRGEN DEL ROCÍO,37.3656686456323,-5.98410602614636,Sevilla,41,SEVILLA,0,TRAUMATOLOGÍA Y/O REHABILITACIÓN,N
410454,HOSPITAL DE ALTA RESOLUCIÓN DE LEBRIJA,36.91957092285156,-6.078358173370361,Lebrija,41,SEVILLA,22,GENERAL,N
410465,HOSPITAL INFANTIL,37.3656686456323,-5.98410602614636,Sevilla,41,SEVILLA,0,INFANTIL,N
410476,HOSPITAL DE LA MUJER,37.3656686456323,-5.98410602614636,Sevilla,41,SEVILLA,0,GENERAL,N
420011,HOSPITAL SANTA BÁRBARA,34.420867919921875,-119.6983413696289,Soria,42,SORIA,0,GENERAL,N
420026,HOSPITAL VIRGEN DEL MIRÓN,42.4985585748738,-2.4356596935200763,Soria,42,SORIA,0,GERIATRÍA Y/O LARGA ESTANCIA,N
420040,COMPLEJO ASISTENCIAL DE SORIA,41.76359939575195,-2.464920997619629,Soria,42,SORIA,319,GENERAL,N
430017,HOSPITAL UNIVERSITARI JOAN XXIII DE TARRAGONA,41.1250297,1.2386273,Tarragona,43,TARRAGONA,372,GENERAL,N
430022,HOSPITAL SOCIOSANITARI FRANCOLÍ,41.1186637878418,1.245329976081848,Tarragona,43,TARRAGONA,156,GERIATRÍA Y/O LARGA ESTANCIA,N
430043,HOSPITAL DE SANT PAU I SANTA TECLA,41.116383299999995,1.2549318999999999,Tarragona,43,TARRAGONA,186,GENERAL,N
430056,HOSPITAL VIAMED MONEGAL,41.118739811694425,1.2512110612472118,Tarragona,43,TARRAGONA,53,GENERAL,N
430069,CLÍNICA ACTIVA MÚTUA 2008,41.1188984,1.248744,Tarragona,43,TARRAGONA,22,OTROS MONOGRÁFICOS,N
430081,HOSPITAL COMARCAL MÓRA D'EBRE,41.08858871459961,0.6391599774360657,Móra d'Ebre,43,TARRAGONA,120,GENERAL,N
430094,HOSPITAL UNIVERSITARI DE SANT JOAN DE REUS,41.1448321,1.1217306999999999,Reus,43,TARRAGONA,313,GENERAL,N
430108,CENTRE MQ REUS,41.58974932775221,2.1651999209189827,Reus,43,TARRAGONA,50,GENERAL,N
430115,"VILLABLANCA SERVEIS ASSISTENCIALS, SA",41.15481567382813,1.1086469888687134,Reus,43,TARRAGONA,350,PSIQUIÁTRICO,N
430120,"INSTITUT PERE MATA, S.A",41.1631916585391,1.0889775778653001,Reus,43,TARRAGONA,727,PSIQUIÁTRICO,N
430167,HOSPITAL DE TORTOSA VERGE DE LA CINTA,40.81100463867188,0.5209969878196716,Tortosa,43,TARRAGONA,248,GENERAL,N
430173,HOSPITAL DE LA SANTA CREU,40.827065787074034,0.5101282667237447,Tortosa,43,TARRAGONA,250,GERIATRÍA Y/O LARGA ESTANCIA,N
430189,CLÍNICA TERRES DE L'EBRE,40.81100463867188,0.5209969878196716,Tortosa,43,TARRAGONA,40,GENERAL,N
430213,POLICLÍNICA COMARCAL DEL VENDRELL.,41.25251770019531,1.5493769645690918,Santa Oliva,43,TARRAGONA,136,GERIATRÍA Y/O LARGA ESTANCIA,N
430228,PIUS HOSPITAL DE VALLS,41.282285850030796,1.24799199998196,Valls,43,TARRAGONA,142,GENERAL,N
430234,RESIDÈNCIA ALT CAMP,41.28743743896485,1.251662015914917,Valls,43,TARRAGONA,50,GERIATRÍA Y/O LARGA ESTANCIA,N
430249,CENTRE SOCIOSANITARI CIUTAT DE REUS,40.0841438,-3.4887372,Reus,43,TARRAGONA,85,GERIATRÍA Y/O LARGA ESTANCIA,N
430252,HOSPITAL COMARCAL D'AMPOSTA,41.1087274,1.1408854,Amposta,43,TARRAGONA,88,GENERAL,N
430265,CENTRE SOCIOSANITARI LLEVANT,41.1186637878418,1.245329976081848,Tarragona,43,TARRAGONA,60,GERIATRÍA Y/O LARGA ESTANCIA,N
430276,RESIDÈNCIA VILA-SECA,41.1107959,1.1491035,Vila-seca,43,TARRAGONA,35,GERIATRÍA Y/O LARGA ESTANCIA,N
430287,UNITAT POLIVALENT EN SALUT MENTAL D'AMPOSTA,41.20156146961294,1.6088355494095468,Amposta,43,TARRAGONA,127,PSIQUIÁTRICO,N
430298,HOSPITAL DEL VENDRELL,41.22038650512695,1.5349090099334717,"Vendrell, El",43,TARRAGONA,120,GENERAL,N
430300,CENTRE SOCIOSANITARI I RESIDÈNCIA ASSISTIDA SALOU,42.628946899999995,2.8164928,Salou,43,TARRAGONA,30,GERIATRÍA Y/O LARGA ESTANCIA,N
430322,RESIDÈNCIA SANTA TECLA PONENT,41.1186637878418,1.245329976081848,Tarragona,43,TARRAGONA,70,GERIATRÍA Y/O LARGA ESTANCIA,N
430333,UNITAT DE REFERÈNCIA DE PSIQUIATRIA I TRASTORNS DE LA CONDUCTA ALIMENTÀRIA (URPI),41.1448321,1.1217306999999999,Reus,43,TARRAGONA,20,PSIQUIÁTRICO,N
440012,HOSPITAL OBISPO POLANCO,40.3328326500258,-1.10807665016406,Teruel,44,TERUEL,215,GENERAL,N
440027,HOSPITAL SAN JOSÉ,40.34602562974735,-1.1151927328842663,Teruel,44,TERUEL,50,GERIATRÍA Y/O LARGA ESTANCIA,N
440033,CENTRO DE REHABILITACION PSICOSOCIAL SAN JUAN DE DIOS,41.0520756,-0.13980739999999997,Teruel,44,TERUEL,150,PSIQUIÁTRICO,N
440048,HOSPITAL DE ALCAÑIZ,41.04482756034106,-0.13005011440518613,Alcañiz,44,TERUEL,131,GENERAL,N
450015,HOSPITAL VIRGEN DE LA SALUD,39.87115693835996,-4.03617313632474,Toledo,45,TOLEDO,0,GENERAL,N
450020,HOSPITAL GERIÁTRICO VIRGEN DEL VALLE,39.8445493501075,-4.02095214976433,Toledo,45,TOLEDO,0,GERIATRÍA Y/O LARGA ESTANCIA,N
450036,HOSPITAL NACIONAL DE PARAPLÉJICOS,39.85676193237305,-4.0245280265808105,Toledo,45,TOLEDO,210,TRAUMATOLOGÍA Y/O REHABILITACIÓN,N
450041,HOSPITAL PROVINCIAL NUESTRA SEÑORA DE LA MISERICORDIA,51.09328079223633,10.380292892456056,Toledo,45,TOLEDO,0,GENERAL,N
450067,HOSPITAL GENERAL NUESTRA SEÑORA DEL PRADO,39.963326832971795,-4.80520226560217,Talavera de la Reina,45,TOLEDO,312,GENERAL,N
450089,"CLÍNICA MARAZUELA, S.A.",39.961839700000006,-4.8250543,Talavera de la Reina,45,TOLEDO,15,GENERAL,N
450092,COMPLEJO HOSPITALARIO DE TOLEDO,39.87115693835996,-4.03617313632474,Toledo,45,TOLEDO,953,GENERAL,N
450113,HOSPITAL LABORAL SOLIMAT MUTUA COLABORADORA CON LA SS Nº 72,39.8680993,-4.0424396,Toledo,45,TOLEDO,10,TRAUMATOLOGÍA Y/O REHABILITACIÓN,N
450122,QUIRÓN SALUD TOLEDO,39.8852892194132,-4.041102237035529,Toledo,45,TOLEDO,80,MÉDICO-QUIRÚRGICO,N
450133,"CENTRO DE TRAT. DE DROGODEP. ""EL ALBA""",39.8608109500262,-4.04517954996373,Toledo,45,TOLEDO,30,OTRA FINALIDAD,N
460018,HOSPITAL UNIVERSITARIO Y POLITÉCNICO LA FE,39.4454862411427,-0.371941040347758,Valencia,46,VALENCIA,1000,GENERAL,N
460023,HOSPITAL UNIVERSITARIO DR. PESET ALEIXANDRE,39.45307935519223,-0.3926918892226451,Valencia,46,VALENCIA,539,GENERAL,N
460039,HOSPITAL ARNAU DE VILANOVA,39.490297399999996,-0.4033087,Valencia,46,VALENCIA,302,GENERAL,N
460044,HOSPITAL CLÍNICO UNIVERSITARIO DE VALENCIA,39.4787554,-0.3625595,Valencia,46,VALENCIA,582,GENERAL,N
460057,HOSPITAL DE LA MALVA-ROSA,39.4759039,-0.32567229999999997,Valencia,46,VALENCIA,33,QUIRÚRGICO,N
460060,CONSORCIO HOSPITAL GENERAL UNIVERSITARIO DE VALENCIA,39.468631,-0.40669079999999996,Valencia,46,VALENCIA,546,GENERAL,N
460082,HOSPITAL CATÓLICO CASA DE SALUD,39.4693557,-0.349901,Valencia,46,VALENCIA,192,GENERAL,N
460095,HOSPITAL NISA VALENCIA AL MAR,39.4766241,-0.3302309,Valencia,46,VALENCIA,70,GENERAL,N
460109,FUNDACIÓN INSTITUTO VALENCIANO DE ONCOLOGÍA,39.4815771,-0.3897001,Valencia,46,VALENCIA,160,ONCOLÓGICO,N
460116,HOSPITAL VIRGEN DEL CONSUELO,38.5793796,-0.0842596,Valencia,46,VALENCIA,156,GENERAL,N
460137,HOSPITAL QUIRÓN VALENCIA,39.47835019631052,-0.3639324946590559,Valencia,46,VALENCIA,88,GENERAL,N
460168,HOSPITAL PSIQUIÁTRICO PROVINCIAL,39.5301224703341,-0.4184747046423801,Bétera,46,VALENCIA,80,PSIQUIÁTRICO,N
460180,CASA DE REPOSO SAN ONOFRE,39.52128344441006,-0.4160106721789677,Godella,46,VALENCIA,76,PSIQUIÁTRICO,N
460207,HOSPITAL FRANCESC DE BORJA DE GANDIA,38.96249460003,-0.172205150125569,Gandia,46,VALENCIA,285,GENERAL,N
460229,HOSPITAL LLUÍS ALCANYÍS DE XÀTIVA,39.423354610286474,-0.3777998304446,Xàtiva,46,VALENCIA,273,GENERAL,N
460235,HOSPITAL GENERAL DE ONTINYENT,38.8199304,-0.6030380999999999,Ontinyent,46,VALENCIA,56,GENERAL,N
460240,HOSPITAL INTERMUTUAL DE LEVANTE,39.5626695061717,-0.49920910146618297,San Antonio de Benagéber,46,VALENCIA,230,TRAUMATOLOGÍA Y/O REHABILITACIÓN,N
460266,HOSPITAL DE SAGUNTO,39.6688867101967,-0.23642435199780198,Sagunto/Sagunt,46,VALENCIA,252,GENERAL,N
460272,HOSPITAL DOCTOR MOLINER,-20.52584,-54.671530000000004,Serra,46,VALENCIA,179,GERIATRÍA Y/O LARGA ESTANCIA,N
460288,HOSPITAL GENERAL DE REQUENA,39.4847533,-1.0914171499999998,Requena,46,VALENCIA,113,GENERAL,N
460291,HOSPITAL 9 DE OCTUBRE,39.4783515,-0.40160209999999996,Valencia,46,VALENCIA,300,GENERAL,N
460327,CENTRO MÉDICO GANDIA,39.1456297,-0.38777140000000004,Gandia,46,VALENCIA,11,GENERAL,N
460333,HOSPITAL NISA AGUAS VIVAS,39.086378900164796,-0.354296349908928,Carcaixent,46,VALENCIA,96,GENERAL,N
460348,CLINICA FONTANA,38.3530231,-0.48382759999999997,Valencia,46,VALENCIA,7,QUIRÚRGICO,N
460351,HOSPITAL UNIVERSITARIO DE LA RIBERA,39.160344265593,-0.42233271206947604,Alzira,46,VALENCIA,301,GENERAL,N
460369,HOSPITAL PARE JOFRÉ,39.453428250007,-0.39393045001763394,Valencia,46,VALENCIA,125,GERIATRÍA Y/O LARGA ESTANCIA,N
460370,HOSPITAL DE MANISES,39.4856979,-0.45198679999999997,Manises,46,VALENCIA,354,GENERAL,N
460381,HOSPITAL DE CRÓNICOS DE MISLATA (ANTIGUO HOSPITAL MILITAR DE VALENCIA),39.4795096000014,-0.423857150006632,Mislata,46,VALENCIA,115,GERIATRÍA Y/O LARGA ESTANCIA,N
460392,HOSPITAL DE LLÍRIA,39.62458419799805,-0.5947579741477966,Llíria,46,VALENCIA,90,GENERAL,N
460404,IMED VALENCIA,39.502055581515606,-0.40471621367974603,Burjassot,46,VALENCIA,207,GENERAL,N
460415,UNIDAD DE DESINTOXICACIÓN HOSPITALARIA,39.0716667175293,-0.2677150070667267,Carcaixent,46,VALENCIA,16,OTROS MONOGRÁFICOS,N
470014,HOSPITAL UNIVERSITARIO RIO HORTEGA,41.6298239,-4.7118763,Valladolid,47,VALLADOLID,606,GENERAL,N
470029,HOSPITAL CLÍNICO UNIVERSITARIO DE VALLADOLID,41.6559494,-4.720214299999999,Valladolid,47,VALLADOLID,777,GENERAL,N
470053,SANATORIO SAGRADO CORAZÓN,41.6497469,-4.7201314000000005,Valladolid,47,VALLADOLID,75,GENERAL,N
470072,CENTRO HOSPITALARIO BENITO MENNI,41.62916793621193,-4.72299455237376,Valladolid,47,VALLADOLID,240,REHABILITACIÓN PSICOFÍSICA,N
470091,HOSPITAL MEDINA DEL CAMPO,40.905788977263704,-5.20107348144475,Medina del Campo,47,VALLADOLID,119,GENERAL,N
470105,HOSPITAL DE VALLADOLID FELIPE II,41.6552797,-4.7256347000000005,Valladolid,47,VALLADOLID,79,GENERAL,N
470113,HOSPITAL CAMPO GRANDE,41.6441833753756,-4.72740443461924,Valladolid,47,VALLADOLID,93,GENERAL,N
480010,HOSPITAL SANTA MARINA,43.2632016,-2.8865833,Bilbao,48,VIZCAYA,245,GERIATRÍA Y/O LARGA ESTANCIA,N
480025,HOSPITAL INTERMUTUAL DE EUSKADI,43.2685143,-2.9274715000000002,Bilbao,48,VIZCAYA,44,GENERAL,N
480031,CLÍNICA ERCILLA MUTUALIA,43.2648956,-2.9311361000000002,Bilbao,48,VIZCAYA,23,TRAUMATOLOGÍA Y/O REHABILITACIÓN,N
480046,HOSPITAL CRUZ ROJA DE BILBAO,43.2612588,-2.9421442000000004,Bilbao,48,VIZCAYA,68,GENERAL,N
480059,SANATORIO BILBAÍNO,43.2583476,-2.9406771000000003,Bilbao,48,VIZCAYA,40,GENERAL,N
480078,HOSPITAL DE BASURTO,43.2608455,-2.9538298,Bilbao,48,VIZCAYA,733,GENERAL,N
480097,IMQ CLÍNICA VIRGEN BLANCA,43.2583273,-2.9154279,Bilbao,48,VIZCAYA,74,GENERAL,N
480123,CLÍNICA GUIMON S.A.,43.2589008,-2.9422232000000004,Bilbao,48,VIZCAYA,47,GENERAL,N
